id,name,city,iata,lat,long,timezone
3411,Barter Island LRRS Airport,Barter Island,BTI,70.13400269,-143.5820007,-9
3413,Cape Lisburne LRRS Airport,Cape Lisburne,LUR,68.87509918,-166.1100006,-9
3414,Point Lay LRRS Airport,Point Lay,PIZ,69.73290253,-163.0050049,-9
3415,Hilo International Airport,Hilo,ITO,19.72139931,-155.0480042,-10
3416,Orlando Executive Airport,Orlando,ORL,28.5455,-81.332901,-5
3417,Bettles Airport,Bettles,BTT,66.91390228,-151.529007,-9
3419,Indian Mountain LRRS Airport,Indian Mountains,UTO,65.99279785,-153.7039948,-9
3420,Fort Yukon Airport,Fort Yukon,FYU,66.57150269,-145.25,-9
3421,Sparrevohn LRRS Airport,Sparrevohn,SVW,61.09740067,-155.5740051,-9
3422,Bryant Army Heliport,Fort Richardson,FRN,61.26639938,-149.6529999,-9
3423,Tatalina LRRS Airport,Tatalina,TLJ,62.89440155,-155.977005,-9
3424,Cape Romanzof LRRS Airport,Cape Romanzof,CZF,61.78030014,-166.0390015,-9
3425,Laurence G Hanscom Field,Bedford,BED,42.47000122,-71.28900146,-5
3426,St Paul Island Airport,St. Paul Island,SNP,57.16730118,-170.2200012,-9
3427,Cape Newenham LRRS Airport,Cape Newenham,EHM,58.64640045,-162.0630035,-9
3428,St George Airport,Point Barrow,STG,56.57830048,-169.6620026,-9
3429,Iliamna Airport,Iliamna,ILI,59.75439835,-154.9109955,-9
3430,Platinum Airport,Port Moller,PTU,59.01139832,-161.8200073,-9
3431,Big Mountain Airport,Big Mountain,BMX,59.36119843,-155.2590027,-9
3432,Oscoda Wurtsmith Airport,Oscoda,OSC,44.451599,-83.394096,-5
3433,Marina Municipal Airport,Fort Ord,OAR,36.68190002,-121.762001,-8
3434,Sacramento Mather Airport,Sacramento,MHR,38.55390167,-121.2979965,-8
3435,Bicycle Lake Army Air Field,Fort Irwin,BYS,35.2804985,-116.6299973,-8
3437,Fort Smith Regional Airport,Fort Smith,FSM,35.33660126,-94.36740112,-6
3438,Merrill Field,Anchorage,MRI,61.21350098,-149.8439941,-9
3439,Grants-Milan Municipal Airport,Grants,GNT,35.16730118,-107.9020004,-7
3440,Ponca City Regional Airport,Ponca City,PNC,36.73199844,-97.09980011,-6
3441,Hunter Army Air Field,Hunter Aaf,SVN,32.00999832,-81.14569855,-5
3442,Grand Forks International Airport,Grand Forks,GFK,47.949299,-97.176102,-6
3443,"Pine Bluff Regional Airport, Grider Field",Pine Bluff,PBF,34.1731,-91.9356,-6
3444,Whiting Field Naval Air Station - North,Milton,NSE,30.7241993,-87.02189636,-6
3445,Hana Airport,Hana,HNM,20.79560089,-156.0140076,-10
3446,Ernest A. Love Field,Prescott,PRC,34.65449905,-112.4199982,-7
3447,Trenton Mercer Airport,Trenton,TTN,40.27669907,-74.81349945,-5
3448,General Edward Lawrence Logan International Airport,Boston,BOS,42.36429977,-71.00520325,-5
3449,Travis Air Force Base,Fairfield,SUU,38.26269913,-121.927002,-8
3450,Griffiss International Airport,Rome,RME,43.23379898,-75.40699768,-5
3451,Wendover Airport,Wendover,ENV,40.71870041,-114.0309982,-7
3452,Mobile Downtown Airport,Mobile,BFM,30.62680054,-88.06809998,-6
3453,Metropolitan Oakland International Airport,Oakland,OAK,37.721298,-122.221001,-8
3454,Eppley Airfield,Omaha,OMA,41.3032,-95.894096,-6
3456,Kahului Airport,Kahului,OGG,20.8986,-156.429993,-10
3457,Wichita Eisenhower National Airport,Wichita,ICT,37.649899,-97.433098,-6
3458,Kansas City International Airport,Kansas City,MCI,39.2976,-94.713898,-6
3459,Dane County Regional Truax Field,Madison,MSN,43.13990021,-89.33750153,-6
3460,Dillingham Airport,Dillingham,DLG,59.04470062,-158.5050049,-9
3461,Boone County Airport,Harrison,HRO,36.26150131,-93.15470123,-6
3462,Phoenix Sky Harbor International Airport,Phoenix,PHX,33.43429947,-112.012001,-7
3463,Bangor International Airport,Bangor,BGR,44.80739975,-68.82810211,-5
3464,Fort Lauderdale Executive Airport,Fort Lauderdale,FXE,26.19729996,-80.17070007,-5
3465,East Texas Regional Airport,Longview,GGG,32.38399887,-94.71150208,-6
3466,Anderson Regional Airport,Andersen,AND,34.49459839,-82.70939636,-5
3467,Spokane International Airport,Spokane,GEG,47.61989975,-117.5339966,-8
3468,North Perry Airport,Hollywood,HWO,26.0012,-80.2407,-5
3469,San Francisco International Airport,San Francisco,SFO,37.61899948,-122.375,-8
3470,Cut Bank International Airport,Cutbank,CTB,48.60839844,-112.3759995,-7
3471,Acadiana Regional Airport,Louisiana,ARA,30.0378,-91.883904,-6
3472,Gainesville Regional Airport,Gainesville,GNV,29.69009972,-82.27179718,-5
3473,Memphis International Airport,Memphis,MEM,35.04240036,-89.97669983,-6
3474,Bisbee Douglas International Airport,Douglas,DUG,31.46899986,-109.6039963,-7
3475,Allen Army Airfield,Delta Junction,BIG,63.99449921,-145.7220001,-9
3476,TSTC Waco Airport,Waco,CNW,31.63780022,-97.07409668,-6
3477,Annette Island Airport,Annette Island,ANN,55.04240036,-131.5720062,-9
3478,Caribou Municipal Airport,Caribou,CAR,46.87149811,-68.01789856,-5
3479,Little Rock Air Force Base,Jacksonville,LRF,34.91690063,-92.14969635,-6
3480,Redstone Army Air Field,Redstone,HUA,34.67869949,-86.68479919,-6
3481,Pope Field,Fort Bragg,POB,35.17089844,-79.01450348,-5
3482,Dalhart Municipal Airport,Dalhart,DHT,36.02259827,-102.5469971,-6
3483,DLF Airport,Del Rio,DLF,29.359501,-100.778002,-6
3484,Los Angeles International Airport,Los Angeles,LAX,33.94250107,-118.4079971,-8
3485,Anniston Regional Airport,Anniston,ANB,33.5882,-85.8581,-6
3486,Cleveland Hopkins International Airport,Cleveland,CLE,41.4117012,-81.84980011,-5
3487,Dover Air Force Base,Dover,DOV,39.12950134,-75.46600342,-5
3488,Cincinnati Northern Kentucky International Airport,Cincinnati,CVG,39.04880142,-84.6678009,-5
3489,Tipton Airport,Fort Meade,FME,39.08539963,-76.75939941,-5
3491,Huron Regional Airport,Huron,HON,44.3852005,-98.22850037,-6
3492,Juneau International Airport,Juneau,JNU,58.35499954,-134.576004,-9
3493,Lafayette Regional Airport,Lafayette,LFT,30.20529938,-91.98760223,-6
3494,Newark Liberty International Airport,Newark,EWR,40.69250107,-74.16870117,-5
3495,Boise Air Terminal/Gowen Field,Boise,BOI,43.5644,-116.223,-7
3496,Creech Air Force Base,Indian Springs,INS,36.58720016,-115.6729965,-8
3497,Garden City Regional Airport,Garden City,GCK,37.92750168,-100.723999,-6
3498,Minot International Airport,Minot,MOT,48.25939941,-101.2799988,-6
3499,Wheeler Army Airfield,Wahiawa,HHI,21.48349953,-158.0399933,-10
3500,Maxwell Air Force Base,Montgomery,MXF,32.3829,-86.365799,-6
3502,Dallas Love Field,Dallas,DAL,32.847099,-96.851799,-6
3503,Butts AAF (Fort Carson) Air Field,Fort Carson,FCS,38.67839813,-104.7570038,-7
3504,Helena Regional Airport,Helena,HLN,46.60680008,-111.9830017,-7
3505,Miramar Marine Corps Air Station - Mitscher Field,Miramar,NKX,32.86840057,-117.1429977,-8
3506,Luke Air Force Base,Phoenix,LUF,33.53499985,-112.3830032,-7
3508,Jack Northrop Field Hawthorne Municipal Airport,Hawthorne,HHR,33.922798,-118.334999,-8
3509,Houlton International Airport,Houlton,HUL,46.12310028,-67.792099,-5
3510,Vance Air Force Base,Enid,END,36.33919907,-97.91649628,-6
3511,Point Mugu Naval Air Station (Naval Base Ventura Co),Point Mugu,NTD,34.12030029,-119.1210022,-8
3512,Edwards Air Force Base,Edwards Afb,EDW,34.905399,-117.884003,-8
3513,Lake Charles Regional Airport,Lake Charles,LCH,30.12610054,-93.22329712,-6
3514,Ellison Onizuka Kona International At Keahole Airport,Kona,KOA,19.738783,-156.045603,-10
3515,Myrtle Beach International Airport,Myrtle Beach,MYR,33.67969894,-78.92829895,-5
3516,Lemoore Naval Air Station (Reeves Field) Airport,Lemoore,NLC,36.33300018,-119.9520035,-8
3517,Nantucket Memorial Airport,Nantucket,ACK,41.25310135,-70.06020355,-5
3518,Felker Army Air Field,Fort Eustis,FAF,37.13249969,-76.6088028,-5
3519,Campbell AAF (Fort Campbell) Air Field,Hopkinsville,HOP,36.66859818,-87.49620056,-6
3520,Ronald Reagan Washington National Airport,Washington,DCA,38.8521,-77.037697,-5
3521,Patuxent River Naval Air Station (Trapnell Field),Patuxent River,NHK,38.285999,-76.411797,-5
3522,Palacios Municipal Airport,Palacios,PSX,28.72750092,-96.25099945,-6
3523,Arkansas International Airport,Blytheville,BYH,35.96429825,-89.94400024,-6
3524,Atlantic City International Airport,Atlantic City,ACY,39.45759964,-74.57720184,-5
3525,Tinker Air Force Base,Oklahoma City,TIK,35.41469955,-97.38659668,-6
3526,Elizabeth City Regional Airport & Coast Guard Air Station,Elizabeth City,ECG,36.26060104,-76.17459869,-5
3527,Pueblo Memorial Airport,Pueblo,PUB,38.28910065,-104.4970016,-7
3528,Northern Maine Regional Airport at Presque Isle,Presque Isle,PQI,46.68899918,-68.0447998,-5
3530,Gray Army Air Field,Fort Lewis,GRF,47.07920074,-122.5810013,-8
3531,Kodiak Airport,Kodiak,ADQ,57.75,-152.4940033,-9
3532,Upolu Airport,Opolu,UPP,20.26530075,-155.8600006,-10
3533,Fort Lauderdale Hollywood International Airport,Fort Lauderdale,FLL,26.072599,-80.152702,-5
3535,Falls International Airport,International Falls,INL,48.56620026,-93.40309906,-6
3536,Salt Lake City International Airport,Salt Lake City,SLC,40.78839874,-111.9779968,-7
3537,Childress Municipal Airport,Childress,CDS,34.43379974,-100.288002,-6
3538,Keesler Air Force Base,Biloxi,BIX,30.41040039,-88.92440033,-6
3539,Lawson Army Air Field (Fort Benning),Fort Benning,LSF,32.33729935,-84.99130249,-5
3540,Kingsville Naval Air Station,Kingsville,NQI,27.50720024,-97.80970001,-6
3541,Marshall Army Air Field,Fort Riley,FRI,39.05530167,-96.76450348,-6
3542,Harrisburg International Airport,Harrisburg,MDT,40.19350052,-76.76339722,-5
3543,Lincoln Airport,Lincoln,LNK,40.85100174,-96.75920105,-6
3544,Capital City Airport,Lansing,LAN,42.77870178,-84.58740234,-5
3545,Waimea Kohala Airport,Kamuela,MUE,20.00130081,-155.6679993,-10
3546,Massena International Richards Field,Massena,MSS,44.93579865,-74.84559631,-5
3547,Hickory Regional Airport,Hickory,HKY,35.74110031,-81.38950348,-5
3548,Albert Whitted Airport,St. Petersburg,SPG,27.7651,-82.626999,-5
3549,Page Field,Fort Myers,FMY,26.58659935,-81.86329651,-5
3550,George Bush Intercontinental Houston Airport,Houston,IAH,29.9843998,-95.34140015,-6
3552,Joint Base Andrews,Camp Springs,ADW,38.810799,-76.866997,-5
3553,Smith Reynolds Airport,Winston-salem,INT,36.13370132,-80.22200012,-5
3554,Southern California Logistics Airport,Victorville,VCV,34.59749985,-117.3830032,-8
3555,Bob Sikes Airport,Crestview,CEW,30.77879906,-86.52210236,-6
3557,St Clair County International Airport,Port Huron,PHN,42.9109993,-82.52890015,-5
3558,Meadows Field,Bakersfield,BFL,35.43360138,-119.0569992,-8
3559,El Paso International Airport,El Paso,ELP,31.80719948,-106.3779984,-7
3560,Valley International Airport,Harlingen,HRL,26.22850037,-97.65440369,-6
3561,Columbia Metropolitan Airport,Columbia,CAE,33.93880081,-81.11949921,-5
3562,Davis Monthan Air Force Base,Tucson,DMA,32.16650009,-110.8830032,-7
3563,Pensacola Naval Air Station/Forrest Sherman Field,Pensacola,NPA,30.35269928,-87.31860352,-6
3564,Pensacola Regional Airport,Pensacola,PNS,30.47340012,-87.18659973,-6
3565,Grand Forks Air Force Base,Red River,RDR,47.96110153,-97.40119934,-6
3566,William P Hobby Airport,Houston,HOU,29.64539909,-95.27890015,-6
3567,Buckley Air Force Base,Buckley,BFK,39.7016983,-104.7519989,-7
3568,Northway Airport,Northway,ORT,62.9612999,-141.9290009,-9
3569,"Warren ""Bud"" Woods Palmer Municipal Airport",Palmer,PAQ,61.594898,-149.08901,-9
3570,Pittsburgh International Airport,Pittsburgh,PIT,40.49150085,-80.23290253,-5
3571,Wiley Post Will Rogers Memorial Airport,Barrow,BRW,71.285402,-156.766008,-9
3572,Ellington Airport,Houston,EFD,29.6072998,-95.15879822,-6
3573,Whidbey Island Naval Air Station (Ault Field),Whidbey Island,NUW,48.351799,-122.655998,-8
3574,Alice International Airport,Alice,ALI,27.74090004,-98.02690125,-6
3575,Moody Air Force Base,Valdosta,VAD,30.96780014,-83.19300079,-5
3576,Miami International Airport,Miami,MIA,25.79319954,-80.29060364,-5
3577,Seattle Tacoma International Airport,Seattle,SEA,47.449001,-122.308998,-8
3578,Lovell Field,Chattanooga,CHA,35.03530121,-85.20379639,-5
3579,Igor I Sikorsky Memorial Airport,Stratford,BDR,41.16350174,-73.12619781,-5
3580,Jackson-Medgar Wiley Evers International Airport,Jackson,JAN,32.31119919,-90.07589722,-6
3581,Scholes International At Galveston Airport,Galveston,GLS,29.26530075,-94.86039734,-6
3582,Long Beach /Daugherty Field/ Airport,Long Beach,LGB,33.81769943,-118.1520004,-8
3583,Dillingham Airfield,Dillingham,HDH,21.5795002,-158.1970062,-10
3584,Williamsport Regional Airport,Williamsport,IPT,41.2417984,-76.9210968,-5
3585,Indianapolis International Airport,Indianapolis,IND,39.7173,-86.294403,-5
3586,Whiteman Air Force Base,Knobnoster,SZL,38.7303009,-93.54789734,-6
3587,Akron Fulton International Airport,Akron,AKC,41.03749847,-81.46690369,-5
3588,Greenwood–Leflore Airport,Greenwood,GWO,33.49430084,-90.08470154,-6
3589,Westchester County Airport,White Plains,HPN,41.06700134,-73.70760345,-5
3590,Francis S Gabreski Airport,West Hampton Beach,FOK,40.84370041,-72.63179779,-5
3591,Jonesboro Municipal Airport,Jonesboro,JBR,35.83169937,-90.64640045,-6
3592,Tonopah Test Range Airport,Tonopah,XSD,37.79880142,-116.7809982,-8
3593,Palm Beach County Park Airport,West Palm Beach,LNA,26.59300041,-80.08509827,-5
3594,North Island Naval Air Station-Halsey Field,San Diego,NZY,32.69919968,-117.2149963,-8
3595,Biggs Army Air Field (Fort Bliss),El Paso,BIF,31.84950066,-106.3799973,-7
3596,Yuma MCAS/Yuma International Airport,Yuma,YUM,32.65660095,-114.6060028,-7
3597,Cavern City Air Terminal,Carlsbad,CNM,32.33750153,-104.2630005,-7
3598,Duluth International Airport,Duluth,DLH,46.84209824,-92.19360352,-6
3599,Bethel Airport,Bethel,BET,60.77980042,-161.8379974,-9
3600,Bowman Field,Louisville,LOU,38.22800064,-85.66369629,-5
3601,Sierra Vista Municipal Libby Army Air Field,Fort Huachuca,FHU,31.58849907,-110.3440018,-7
3602,Lihue Airport,Lihue,LIH,21.97599983,-159.3390045,-10
3603,"Terre Haute Regional Airport, Hulman Field",Terre Haute,HUF,39.4515,-87.307602,-5
3604,Havre City County Airport,Havre,HVR,48.54299927,-109.762001,-7
3605,Grant County International Airport,Grant County Airport,MWH,47.20769882,-119.3199997,-8
3606,Edward F Knapp State Airport,Montpelier,MPV,44.20349884,-72.56230164,-5
3608,Richmond International Airport,Richmond,RIC,37.50519943,-77.31970215,-5
3609,Shreveport Regional Airport,Shreveport,SHV,32.446602,-93.8256,-6
3610,Merle K (Mudhole) Smith Airport,Cordova,CDV,60.4917984,-145.4779968,-9
3611,Norfolk International Airport,Norfolk,ORF,36.89459991,-76.20120239,-5
3612,Southeast Texas Regional Airport,Beaumont,BPT,29.95079994,-94.02069855,-6
3613,Savannah Hilton Head International Airport,Savannah,SAV,32.12760162,-81.20210266,-5
3614,Hill Air Force Base,Ogden,HIF,41.12403,-111.973086,-7
3615,Nome Airport,Nome,OME,64.5121994,-165.4450073,-9
3617,St Petersburg Clearwater International Airport,St. Petersburg,PIE,27.91020012,-82.68740082,-5
3618,Menominee Regional Airport,Macon,MNM,45.126701,-87.638397,-6
3619,Conroe-North Houston Regional Airport,Conroe,CXO,30.351801,-95.414497,-6
3620,Deadhorse Airport,Deadhorse,SCC,70.19470215,-148.4649963,-9
3621,San Antonio International Airport,San Antonio,SAT,29.53370094,-98.46980286,-6
3622,Greater Rochester International Airport,Rochester,ROC,43.1189003,-77.67240143,-5
3623,Patrick Air Force Base,Coco Beach,COF,28.23489952,-80.61009979,-5
3624,Teterboro Airport,Teterboro,TEB,40.85010147,-74.06079865,-5
3625,Ellsworth Air Force Base,Rapid City,RCA,44.14500046,-103.1039963,-7
3626,Raleigh Durham International Airport,Raleigh-durham,RDU,35.87760162,-78.78749847,-5
3627,James M Cox Dayton International Airport,Dayton,DAY,39.90240097,-84.2193985,-5
3628,Kenai Municipal Airport,Kenai,ENA,60.57310104,-151.2449951,-9
3629,Mc Alester Regional Airport,Mcalester,MLC,34.882401,-95.783501,-6
3630,Niagara Falls International Airport,Niagara Falls,IAG,43.1072998,-78.94619751,-5
3631,Coulter Field,Bryan,CFD,30.71570015,-96.33139801,-6
3632,Wright AAF (Fort Stewart)/Midcoast Regional Airport,Wright,LIY,31.889099,-81.562303,-5
3633,Newport News Williamsburg International Airport,Newport News,PHF,37.13190079,-76.49299622,-5
3634,Esler Regional Airport,Alexandria,ESF,31.39489937,-92.29579926,-6
3635,Altus Air Force Base,Altus,LTS,34.667099,-99.26670074,-6
3636,Tucson International Airport,Tucson,TUS,32.11610031,-110.9410019,-7
3637,Minot Air Force Base,Minot,MIB,48.4156,-101.358002,-6
3638,Beale Air Force Base,Marysville,BAB,39.13610077,-121.4369965,-8
3639,Greater Kankakee Airport,Kankakee,IKK,41.07139969,-87.84629822,-6
3640,Seymour Johnson Air Force Base,Goldsboro,GSB,35.33940125,-77.96060181,-5
3641,Theodore Francis Green State Airport,Providence,PVD,41.732601,-71.420403,-5
3642,Salisbury Ocean City Wicomico Regional Airport,Salisbury,SBY,38.34049988,-75.51029968,-5
3644,Bob Hope Airport,Burbank,BUR,34.20069885,-118.3590012,-8
3645,Detroit Metropolitan Wayne County Airport,Detroit,DTW,42.21239853,-83.35340118,-5
3646,Tampa International Airport,Tampa,TPA,27.97550011,-82.53320313,-5
3647,Pembina Municipal Airport,Pembina,PMB,48.94250107,-97.24079895,-6
3648,Polk Army Air Field,Fort Polk,POE,31.0447998,-93.1917038,-6
3649,Eielson Air Force Base,Fairbanks,EIL,64.66570282,-147.102005,-9
3650,Range Regional Airport,Hibbing,HIB,47.38660049,-92.83899689,-6
3651,Angelina County Airport,Lufkin,LFK,31.23399925,-94.75,-6
3652,Midland International Airport,Midland,MAF,31.94249916,-102.2020035,-6
3653,Austin Straubel International Airport,Green Bay,GRB,44.48509979,-88.12960052,-6
3654,Ardmore Municipal Airport,Ardmore,ADM,34.30301,-97.0196342,-6
3655,Mc Guire Air Force Base,Wrightstown,WRI,40.0155983,-74.59169769,-5
3658,Augusta Regional At Bush Field,Bush Field,AGS,33.36989975,-81.96450043,-5
3659,Sloulin Field International Airport,Williston,ISN,48.17789841,-103.6419983,-6
3660,Bill & Hillary Clinton National Airport/Adams Field,Little Rock,LIT,34.72940063,-92.22429657,-6
3661,Stewart International Airport,Newburgh,SWF,41.5041008,-74.10479736,-5
3662,Baudette International Airport,Baudette,BDE,48.72840118,-94.61219788,-6
3663,Sacramento Executive Airport,Sacramento,SAC,38.51250076,-121.4929962,-8
3664,Homer Airport,Homer,HOM,59.64559937,-151.477005,-9
3665,Waynesville-St. Robert Regional Forney field,Fort Leonardwood,TBN,37.74160004,-92.14070129,-6
3666,Dobbins Air Reserve Base,Marietta,MGE,33.91540146,-84.51629639,-5
3667,Fairchild Air Force Base,Spokane,SKA,47.61510086,-117.6559982,-8
3668,Roscommon County - Blodgett Memorial Airport,Houghton Lake,HTL,44.359798,-84.671095,-5
3669,Tyndall Air Force Base,Panama City,PAM,30.06959915,-85.57540131,-6
3670,Dallas Fort Worth International Airport,Dallas-Fort Worth,DFW,32.896801,-97.038002,-6
3671,Melbourne International Airport,Melbourne,MLB,28.10280037,-80.64530182,-5
3672,McChord Air Force Base,Tacoma,TCM,47.13769913,-122.4759979,-8
3673,Austin Bergstrom International Airport,Austin,AUS,30.19449997,-97.66989899,-6
3674,Rickenbacker International Airport,Columbus,LCK,39.813801,-82.927803,-5
3675,Sawyer International Airport,Gwinn,MQT,46.35359955,-87.395401,-5
3676,McGhee Tyson Airport,Knoxville,TYS,35.81100082,-83.9940033,-5
3677,Hood Army Air Field,Fort Hood,HLR,31.13870049,-97.71450043,-6
3678,St Louis Lambert International Airport,St. Louis,STL,38.748697,-90.370003,-6
3679,Millville Municipal Airport,Millville,MIV,39.367802,-75.072197,-5
3680,Sheppard Air Force Base-Wichita Falls Municipal Airport,Wichita Falls,SPS,33.9888,-98.491898,-6
3681,Cincinnati Municipal Airport Lunken Field,Cincinnati,LUK,39.10329819,-84.41860199,-5
3682,Hartsfield Jackson Atlanta International Airport,Atlanta,ATL,33.6367,-84.428101,-5
3683,Castle Airport,Merced,MER,37.38050079,-120.5680008,-8
3684,Mc Clellan Airfield,Sacramento,MCC,38.66759872,-121.401001,-8
3685,Gerald R. Ford International Airport,Grand Rapids,GRR,42.88079834,-85.52279663,-5
3686,Winkler County Airport,Wink,INK,31.77960014,-103.2009964,-6
3687,Fresno Yosemite International Airport,Fresno,FAT,36.77619934,-119.7180023,-8
3688,Vero Beach Regional Airport,Vero Beach,VRB,27.6556,-80.417901,-5
3689,Imperial County Airport,Imperial,IPL,32.83420181,-115.5790024,-8
3690,Nashville International Airport,Nashville,BNA,36.12450027,-86.67819977,-6
3691,Laredo International Airport,Laredo,LRD,27.54380035,-99.46160126,-6
3692,Elmendorf Air Force Base,Anchorage,EDF,61.25099945,-149.8070068,-9
3693,Ralph Wien Memorial Airport,Kotzebue,OTZ,66.88469696,-162.598999,-9
3694,Altoona Blair County Airport,Altoona,AOO,40.29639816,-78.31999969,-5
3695,Dyess Air Force Base,Abilene,DYS,32.42079926,-99.854599,-6
3696,South Arkansas Regional At Goodwin Field,El Dorado,ELD,33.22100067,-92.81330109,-6
3697,La Guardia Airport,New York,LGA,40.77719879,-73.87259674,-5
3698,Tallahassee Regional Airport,Tallahassee,TLH,30.39649963,-84.35030365,-5
3699,Dupage Airport,West Chicago,DPA,41.90779877,-88.24859619,-6
3700,Waco Regional Airport,Waco,ACT,31.61129951,-97.23049927,-6
3701,Augusta State Airport,Augusta,AUG,44.3205986,-69.79730225,-5
3703,Jacksonville Naval Air Station (Towers Field),Jacksonville,NIP,30.2358,-81.680603,-5
3704,McKellar-Sipes Regional Airport,Jackson,MKL,35.599899,-88.915604,-6
3705,Molokai Airport,Molokai,MKK,21.1529007,-157.095993,-10
3706,Godman Army Air Field,Fort Knox,FTK,37.90710068,-85.9720993,-5
3708,San Angelo Regional Mathis Field,San Angelo,SJT,31.35770035,-100.4960022,-6
3709,Calexico International Airport,Calexico,CXL,32.66949844,-115.5130005,-8
3710,Chico Municipal Airport,Chico,CIC,39.79539871,-121.8580017,-8
3711,Burlington International Airport,Burlington,BTV,44.47190094,-73.15329742,-5
3712,Jacksonville International Airport,Jacksonville,JAX,30.49410057,-81.68789673,-5
3713,Durango La Plata County Airport,Durango,DRO,37.1515007,-107.7539978,-7
3714,Washington Dulles International Airport,Washington,IAD,38.94449997,-77.45580292,-5
3715,Easterwood Field,College Station,CLL,30.58860016,-96.36380005,-6
3716,Felts Field,Spokane,SFF,47.68280029,-117.322998,-8
3717,General Mitchell International Airport,Milwaukee,MKE,42.94720078,-87.89659882,-6
3718,Abilene Regional Airport,Abilene,ABI,32.41130066,-99.68190002,-6
3719,Columbia Regional Airport,Columbia,COU,38.81809998,-92.21959686,-6
3720,Portland International Airport,Portland,PDX,45.58869934,-122.5979996,-8
3721,Dade Collier Training and Transition Airport,Miami,TNT,25.86179924,-80.89700317,-5
3722,Palm Beach International Airport,West Palm Beach,PBI,26.68320084,-80.09559631,-5
3723,Fort Worth Meacham International Airport,Fort Worth,FTW,32.819801,-97.362396,-6
3724,Ogdensburg International Airport,Ogdensburg,OGS,44.68190002,-75.46549988,-5
3725,Cape Cod Coast Guard Air Station,Falmouth,FMH,41.65840149,-70.52140045,-5
3726,Boeing Field King County International Airport,Seattle,BFI,47.52999878,-122.302002,-8
3727,Lackland Air Force Base,San Antonio,SKF,29.38419914,-98.58110046,-6
3728,Daniel K Inouye International Airport,Honolulu,HNL,21.32062,-157.924228,-10
3729,Des Moines International Airport,Des Moines,DSM,41.5340004,-93.6631012,-6
3730,Coastal Carolina Regional Airport,New Bern,EWN,35.07300186,-77.04290009,-5
3731,San Diego International Airport,San Diego,SAN,32.73360062,-117.1900024,-8
3732,Monroe Regional Airport,Monroe,MLU,32.51089859,-92.03769684,-6
3733,Shaw Air Force Base,Sumter,SSC,33.97269821,-80.47059631,-5
3734,Ontario International Airport,Ontario,ONT,34.05599976,-117.6009979,-8
3735,Majors Airport,Greenvile,GVT,33.06779861,-96.06529999,-6
3736,Roswell International Air Center Airport,Roswell,ROW,33.30160141,-104.5309982,-7
3737,Coleman A. Young Municipal Airport,Detroit,DET,42.40919876,-83.00990295,-5
3738,Brownsville South Padre Island International Airport,Brownsville,BRO,25.90679932,-97.42590332,-6
3739,Dothan Regional Airport,Dothan,DHN,31.32130051,-85.44960022,-6
3740,Cape May County Airport,Wildwood,WWD,39.00849915,-74.90830231,-5
3741,Fallon Naval Air Station,Fallon,NFL,39.41659927,-118.7009964,-8
3742,Selfridge Air National Guard Base Airport,Mount Clemens,MTC,42.613463,-82.836919,-5
3743,Four Corners Regional Airport,Farmington,FMN,36.74119949,-108.2300034,-7
3744,Corpus Christi International Airport,Corpus Christi,CRP,27.77039909,-97.50119781,-6
3745,Syracuse Hancock International Airport,Syracuse,SYR,43.11119843,-76.10630035,-5
3746,Naval Air Station Key West/Boca Chica Field,Key West,NQX,24.57579994,-81.68890381,-5
3747,Chicago Midway International Airport,Chicago,MDW,41.785999,-87.752403,-6
3748,Norman Y. Mineta San Jose International Airport,San Jose,SJC,37.362598,-121.929001,-8
3749,Lea County Regional Airport,Hobbs,HOB,32.6875,-103.2170029,-7
3750,Northeast Philadelphia Airport,Philadelphia,PNE,40.081902,-75.010597,-5
3751,Denver International Airport,Denver,DEN,39.86169815,-104.6729965,-7
3752,Philadelphia International Airport,Philadelphia,PHL,39.87189865,-75.2410965,-5
3753,Sioux Gateway Col. Bud Day Field,Sioux City,SUX,42.40259933,-96.38439941,-6
3754,Middle Georgia Regional Airport,Macon,MCN,32.69279861,-83.64920044,-5
3755,Truth Or Consequences Municipal Airport,Truth Or Consequences,TCS,33.23690033,-107.2720032,-7
3756,Palmdale Regional/USAF Plant 42 Airport,Palmdale,PMD,34.62939835,-118.0849991,-8
3757,Randolph Air Force Base,San Antonio,RND,29.52969933,-98.27890015,-6
3758,El Centro NAF Airport (Vraciu Field),El Centro,NJK,32.829201,-115.671996,-8
3759,John Glenn Columbus International Airport,Columbus,CMH,39.998001,-82.891899,-5
3760,Drake Field,Fayetteville,FYV,36.00510025,-94.17009735,-6
3761,Henry Post Army Air Field (Fort Sill),Fort Sill,FSI,34.64979935,-98.40219879,-6
3763,Wright-Patterson Air Force Base,Dayton,FFO,39.8260994,-84.0483017,-5
3764,Edward G. Pitka Sr Airport,Galena,GAL,64.73619843,-156.9369965,-9
3766,Mineral Wells Airport,Mineral Wells,MWL,32.78160095,-98.06020355,-6
3767,Mc Connell Air Force Base,Wichita,IAB,37.62189865,-97.26820374,-6
3768,New Orleans NAS JRB/Alvin Callender Field,New Orleans,NBG,29.82530022,-90.03500366,-6
3769,Beaufort County Airport,Beaufort,BFT,32.41220093,-80.63439941,-5
3770,Texarkana Regional Webb Field,Texarkana,TXK,33.45370102,-93.99099731,-6
3771,Plattsburgh International Airport,Plattsburgh,PBG,44.65090179,-73.4681015,-5
3772,Phillips Army Air Field,Aberdeen,APG,39.466202,-76.1688,-5
3773,Tucumcari Municipal Airport,Tucumcari,TCC,35.18280029,-103.6029968,-7
3774,Ted Stevens Anchorage International Airport,Anchorage,ANC,61.17440033,-149.9960022,-9
3775,Robert Gray  Army Air Field Airport,Killeen,GRK,31.06719971,-97.8289032,-6
3777,Bellingham International Airport,Bellingham,BLI,48.7928009,-122.538002,-8
3778,Millington-Memphis Airport,Millington,NQA,35.356701,-89.8703,-6
3779,Elkins-Randolph Co-Jennings Randolph Field,Elkins,EKN,38.88940048,-79.85710144,-5
3780,Hartford Brainard Airport,Hartford,HFD,41.73669815,-72.6493988,-5
3781,North Central State Airport,Smithfield,SFZ,41.92079926,-71.49140167,-5
3782,Mobile Regional Airport,Mobile,MOB,30.69120026,-88.24279785,-6
3783,Moffett Federal Airfield,Mountain View,NUQ,37.4161,-122.049004,-8
3784,Santa Fe Municipal Airport,Santa Fe,SAF,35.61709976,-106.0889969,-7
3785,Barking Sands Airport,Barking Sands,BKH,22.02280045,-159.7850037,-10
3786,Beauregard Regional Airport,Deridder,DRI,30.83169937,-93.33989716,-6
3787,Bradshaw Army Airfield,Bradshaw Field,BSF,19.76009941,-155.5540009,-10
3788,Nogales International Airport,Nogales,OLS,31.4177,-110.848,-7
3789,Mac Dill Air Force Base,Tampa,MCF,27.84930038,-82.52120209,-5
3790,Scott AFB/Midamerica Airport,Belleville,BLV,38.5452,-89.835197,-6
3791,Opa-locka Executive Airport,Miami,OPF,25.907,-80.278397,-5
3792,Del Rio International Airport,Del Rio,DRT,29.37420082,-100.927002,-6
3793,Southwest Florida International Airport,Fort Myers,RSW,26.53619957,-81.75520325,-5
3794,King Salmon Airport,King Salmon,AKN,58.67679977,-156.6490021,-9
3795,Muir Army Air Field (Fort Indiantown Gap) Airport,Muir,MUI,40.434799,-76.569397,-5
3796,Kapalua Airport,Lahania-kapalua,JHM,20.96290016,-156.6730042,-10
3797,John F Kennedy International Airport,New York,JFK,40.63980103,-73.77890015,-5
3798,Homestead ARB Airport,Homestead,HST,25.48859978,-80.38359833,-5
3799,Riverside Municipal Airport,Riverside,RAL,33.95190048,-117.4449997,-8
3800,Sherman Army Air Field,Fort Leavenworth,FLV,39.36830139,-94.91470337,-6
3801,Wallops Flight Facility Airport,Wallops Island,WAL,37.94020081,-75.46640015,-5
3802,Holloman Air Force Base,Alamogordo,HMN,32.85250092,-106.1070023,-7
3803,Willow Grove Naval Air Station/Joint Reserve Base,Willow Grove,NXX,40.19979858,-75.14820099,-5
3804,Cheyenne Regional Jerry Olson Field,Cheyenne,CYS,41.15570068,-104.8119965,-7
3805,Stockton Metropolitan Airport,Stockton,SCK,37.89419937,-121.237999,-8
3806,Charleston Air Force Base-International Airport,Charleston,CHS,32.89860153,-80.04049683,-5
3807,Reno Tahoe International Airport,Reno,RNO,39.49909973,-119.7679977,-8
3808,Ketchikan International Airport,Ketchikan,KTN,55.35559845,-131.7140045,-9
3809,Willow Run Airport,Detroit,YIP,42.23789978,-83.53040314,-5
3810,Vandenberg Air Force Base,Lompoc,VBG,34.73730087,-120.5839996,-8
3811,Birmingham-Shuttlesworth International Airport,Birmingham,BHM,33.56290054,-86.75350189,-6
3812,Lakehurst Maxfield Field Airport,Lakehurst,NEL,40.03329849,-74.353302,-5
3813,Eareckson Air Station,Shemya,SYA,52.71229935,174.1139984,-10
3814,Nellis Air Force Base,Las Vegas,LSV,36.23619843,-115.0339966,-8
3815,March ARB Airport,Riverside,RIV,33.880699,-117.259003,-8
3816,Modesto City Co-Harry Sham Field,Modesto,MOD,37.62580109,-120.9540024,-8
3817,Sacramento International Airport,Sacramento,SMF,38.69540024,-121.5910034,-8
3818,Waukegan National Airport,Chicago,UGN,42.42219925,-87.86789703,-6
3819,City of Colorado Springs Municipal Airport,Colorado Springs,COS,38.805801,-104.700996,-7
3820,Buffalo Niagara International Airport,Buffalo,BUF,42.94049835,-78.73220062,-5
3821,Griffing Sandusky Airport,Sandusky,SKY,41.4333992,-82.65229797,-5
3822,Snohomish County (Paine Field) Airport,Everett,PAE,47.90629959,-122.2819977,-8
3823,Mountain Home Air Force Base,Mountain Home,MUO,43.043598,-115.872002,-7
3824,Cedar City Regional Airport,Cedar City,CDC,37.70100021,-113.098999,-7
3825,Bradley International Airport,Windsor Locks,BDL,41.93889999,-72.68319702,-5
3826,Mc Allen Miller International Airport,Mcallen,MFE,26.17580032,-98.23860168,-6
3827,Norfolk Naval Station (Chambers Field),Norfolk,NGU,36.937599,-76.289299,-5
3828,Westover ARB/Metropolitan Airport,Chicopee Falls,CEF,42.19400024,-72.53479767,-5
3829,Lubbock Preston Smith International Airport,Lubbock,LBB,33.663601,-101.822998,-6
3830,Chicago O'Hare International Airport,Chicago,ORD,41.9786,-87.9048,-6
3831,Boca Raton Airport,Boca Raton,BCT,26.37849998,-80.10769653,-5
3832,Fairbanks International Airport,Fairbanks,FAI,64.81510162,-147.8560028,-9
3834,Cannon Air Force Base,Clovis,CVS,34.38280106,-103.3219986,-7
3835,Kaneohe Bay MCAS (Marion E. Carl Field) Airport,Kaneohe Bay,NGF,21.45050049,-157.7680054,-10
3836,Offutt Air Force Base,Omaha,OFF,41.11830139,-95.91249847,-6
3837,Gulkana Airport,Gulkana,GKN,62.1548996,-145.4570007,-9
3838,Watertown International Airport,Watertown,ART,43.9919014,-76.021698,-5
3839,Palm Springs International Airport,Palm Springs,PSP,33.82970047,-116.5070038,-8
3840,Rick Husband Amarillo International Airport,Amarillo,AMA,35.219398,-101.706001,-6
3841,Fort Dodge Regional Airport,Fort Dodge,FOD,42.55149841,-94.19259644,-6
3842,Barksdale Air Force Base,Shreveport,BAD,32.50180054,-93.66269684,-6
3843,Topeka Regional Airport - Forbes Field,Topeka,FOE,38.95090103,-95.66359711,-6
3844,Cotulla-La Salle County Airport,Cotulla,COT,28.45669937,-99.22029877,-6
3845,Wilmington International Airport,Wilmington,ILM,34.27059937,-77.90260315,-5
3846,Baton Rouge Metropolitan Airport,Baton Rouge,BTR,30.533199,-91.149597,-6
3848,Tyler Pounds Regional Airport,Tyler,TYR,32.35409927,-95.40239716,-6
3849,Baltimore/Washington International Thurgood Marshall Airport,Baltimore,BWI,39.1754,-76.668297,-5
3850,Hobart Regional Airport,Hobart,HBR,34.991317,-99.051313,-6
3851,Lanai Airport,Lanai,LNY,20.78560066,-156.951004,-10
3852,Alexandria International Airport,Alexandria,AEX,31.32740021,-92.54979706,-6
3853,Condron Army Air Field,White Sands,WSD,32.34149933,-106.4029999,-7
3854,Cold Bay Airport,Cold Bay,CDB,55.20610046,-162.7250061,-9
3855,Tulsa International Airport,Tulsa,TUL,36.19839859,-95.88809967,-6
3856,Sitka Rocky Gutierrez Airport,Sitka,SIT,57.04710007,-135.3619995,-9
3857,Long Island Mac Arthur Airport,Islip,ISP,40.79520035,-73.10019684,-5
3858,Minneapolis-St Paul International/Wold-Chamberlain Airport,Minneapolis,MSP,44.882,-93.221802,-6
3859,New Castle Airport,Wilmington,ILG,39.67869949,-75.60649872,-5
3860,Unalaska Airport,Unalaska,DUT,53.90010071,-166.5440063,-9
3861,Louis Armstrong New Orleans International Airport,New Orleans,MSY,29.99340057,-90.25800323,-6
3862,Portland International Jetport Airport,Portland,PWM,43.64619827,-70.30930328,-5
3863,Will Rogers World Airport,Oklahoma City,OKC,35.39310074,-97.60070038,-6
3864,Albany International Airport,Albany,ALB,42.74829865,-73.80169678,-5
3865,Valdez Pioneer Field,Valdez,VDZ,61.13389969,-146.2480011,-9
3866,Langley Air Force Base,Hampton,LFI,37.082901,-76.36049652,-5
3867,John Wayne Airport-Orange County Airport,Santa Ana,SNA,33.67570114,-117.8679962,-8
3868,Columbus Air Force Base,Colombus,CBM,33.64379883,-88.44380188,-6
3869,Kendall-Tamiami Executive Airport,Kendall-tamiami,TMB,25.64789963,-80.43280029,-5
3870,Oceana Naval Air Station,Oceana,NTU,36.820702,-76.033501,-5
3871,Grissom Air Reserve Base,Peru,GUS,40.64810181,-86.15209961,-5
3872,Casper-Natrona County International Airport,Casper,CPR,42.908001,-106.463997,-7
3873,Destin-Ft Walton Beach Airport,Valparaiso,VPS,30.4832,-86.525398,-6
3874,Craig Field,Selma,SEM,32.34389877,-86.9878006,-6
3875,Key West International Airport,Key West,EYW,24.55610085,-81.75959778,-5
3876,Charlotte Douglas International Airport,Charlotte,CLT,35.2140007,-80.94309998,-5
3877,McCarran International Airport,Las Vegas,LAS,36.08010101,-115.1520004,-8
3878,Orlando International Airport,Orlando,MCO,28.42939949,-81.30899811,-5
3879,Florence Regional Airport,Florence,FLO,34.1853981,-79.72389984,-5
3880,Great Falls International Airport,Great Falls,GTF,47.48199844,-111.3710022,-7
3881,Youngstown Warren Regional Airport,Youngstown,YNG,41.26070023,-80.67910004,-5
3882,Ladd AAF Airfield,Fort Wainwright,FBK,64.83750153,-147.6139984,-9
3884,Robins Air Force Base,Macon,WRB,32.64009857,-83.59190369,-5
3944,Pullman Moscow Regional Airport,Pullman,PUW,46.7439,-117.110001,-8
3945,Lewiston Nez Perce County Airport,Lewiston,LWS,46.37450027,-117.0149994,-8
3946,Elmira Corning Regional Airport,Elmira,ELM,42.15990067,-76.89160156,-5
3947,Ithaca Tompkins Regional Airport,Ithaca,ITH,42.49100113,-76.45839691,-5
3948,Monterey Peninsula Airport,Monterey,MRY,36.5870018,-121.8430023,-8
3949,Santa Barbara Municipal Airport,Santa Barbara,SBA,34.42620087,-119.8399963,-8
3950,Daytona Beach International Airport,Daytona Beach,DAB,29.179899,-81.058098,-5
3993,Downtown-Manhattan/Wall St Heliport,New York,JRB,40.70119858,-74.00900269,-5
4004,Talkeetna Airport,Talkeetna,TKA,62.32049942,-150.0939941,-9
4006,Tweed New Haven Airport,New Haven,HVN,41.26369858,-72.88680267,-5
4007,Asheville Regional Airport,Asheville,AVL,35.43619919,-82.54180145,-5
4008,Piedmont Triad International Airport,Greensboro,GSO,36.09780121,-79.93730164,-5
4009,Joe Foss Field Airport,Sioux Falls,FSD,43.58200073,-96.74189758,-6
4011,Manchester-Boston Regional Airport,Manchester NH,MHT,42.932598,-71.435699,-5
4012,Naples Municipal Airport,Naples,APF,26.15259933,-81.77529907,-5
4014,Louisville International Standiford Field,Louisville,SDF,38.1744,-85.736,-5
4015,Charlottesville Albemarle Airport,Charlottesville VA,CHO,38.1385994,-78.45290375,-5
4016,Roanoke–Blacksburg Regional Airport,Roanoke VA,ROA,37.3255,-79.975403,-5
4017,Blue Grass Airport,Lexington KY,LEX,38.03649902,-84.60590363,-5
4018,Evansville Regional Airport,Evansville,EVV,38.03699875,-87.53240204,-6
4019,Albuquerque International Sunport,Albuquerque,ABQ,35.040199,-106.609001,-7
4020,Gallatin Field,Bozeman,BZN,45.77750015,-111.1529999,-7
4021,Billings Logan International Airport,Billings,BIL,45.80770111,-108.5429993,-7
4022,Bert Mooney Airport,Butte,BTM,45.95479965,-112.4970016,-7
4023,Cherry Capital Airport,Traverse City,TVC,44.74140167,-85.5821991,-5
4025,Hancock County-Bar Harbor Airport,Bar Harbor,BHB,44.45000076,-68.3615036,-5
4026,Knox County Regional Airport,Rockland,RKD,44.06010056,-69.09919739,-5
4027,Jackson Hole Airport,Jacksn Hole,JAC,43.6072998,-110.737999,-7
4028,Chicago Rockford International Airport,Rockford,RFD,42.19540024,-89.09719849,-6
4034,Greenville Spartanburg International Airport,Greenville,GSP,34.89569855,-82.21890259,-5
4037,Central Illinois Regional Airport at Bloomington-Normal,Bloomington,BMI,40.47710037,-88.91590118,-6
4038,Gulfport Biloxi International Airport,Gulfport,GPT,30.40730095,-89.07009888,-6
4039,Kalamazoo Battle Creek International Airport,Kalamazoo,AZO,42.23490143,-85.55210114,-5
4040,Toledo Express Airport,Toledo,TOL,41.58679962,-83.80780029,-5
4041,Fort Wayne International Airport,Fort Wayne,FWA,40.97850037,-85.19509888,-5
4042,Decatur Airport,Decatur,DEC,39.83459854,-88.86569977,-6
4043,The Eastern Iowa Airport,Cedar Rapids,CID,41.88470078,-91.71080017,-6
4044,La Crosse Municipal Airport,La Crosse,LSE,43.879002,-91.256699,-6
4045,Central Wisconsin Airport,Wassau,CWA,44.77759933,-89.66680145,-6
4046,General Wayne A. Downing Peoria International Airport,Peoria,PIA,40.66419983,-89.69329834,-6
4047,Appleton International Airport,Appleton,ATW,44.2580986,-88.51909637,-6
4048,Rochester International Airport,Rochester,RST,43.90829849,-92.5,-6
4049,University of Illinois Willard Airport,Champaign,CMI,40.03919983,-88.27809906,-6
4050,Manhattan Regional Airport,Manhattan,MHK,39.14099884,-96.67079926,-6
4058,Venango Regional Airport,Franklin,FKL,41.37789917,-79.86039734,-5
4063,Grand Junction Regional Airport,Grand Junction,GJT,39.12239838,-108.5270004,-7
4064,St George Municipal Airport,Saint George,SGU,37.036389,-113.510306,-7
4065,David Wayne Hooks Memorial Airport,Houston,DWH,30.0618,-95.55280304,-6
4067,Sarasota Bradenton International Airport,Sarasota,SRQ,27.39539909,-82.55439758,-5
4071,Van Nuys Airport,Van Nuys,VNY,34.20980072,-118.4899979,-8
4072,Quad City International Airport,Moline,MLI,41.44850159,-90.50749969,-6
4073,Panama City-Bay Co International Airport,Panama City,PFN,30.212099,-85.6828,-6
4083,Bismarck Municipal Airport,Bismarck,BIS,46.77270126,-100.7460022,-6
4084,Telluride Regional Airport,Telluride,TEX,37.9538002,-107.9079971,-7
4087,Rapid City Regional Airport,Rapid City,RAP,44.04529953,-103.0569992,-7
4088,Mc Clellan-Palomar Airport,Carlsbad,CLD,33.12829971,-117.2799988,-8
4089,Bishop International Airport,Flint,FNT,42.9654007,-83.74359894,-5
4098,Redding Municipal Airport,Redding,RDD,40.50899887,-122.2929993,-8
4099,Mahlon Sweet Field,Eugene,EUG,44.12459946,-123.211998,-8
4100,Idaho Falls Regional Airport,Idaho Falls,IDA,43.514599,-112.070999,-7
4101,Rogue Valley International Medford Airport,Medford,MFR,42.37419891,-122.8730011,-8
4103,Roberts Field,Redmond-Bend,RDM,44.2541008,-121.1500015,-8
4112,Akron Canton Regional Airport,Akron,CAK,40.91609955,-81.44219971,-5
4113,Huntsville International Carl T Jones Field,Huntsville,HSV,34.6371994,-86.77510071,-6
4114,Mid Ohio Valley Regional Airport,PARKERSBURG,PKB,39.3451004,-81.43920135,-5
4115,Montgomery Regional (Dannelly Field) Airport,MONTGOMERY,MGM,32.30059814,-86.39399719,-6
4116,Tri-Cities Regional TN/VA Airport,BRISTOL,TRI,36.475201,-82.407401,-5
4117,Barkley Regional Airport,PADUCAH,PAH,37.06079865,-88.77380371,-6
4124,Page Municipal Airport,Page,PGA,36.92610168,-111.447998,-7
4127,Glacier Park International Airport,Kalispell,FCA,48.3105011,-114.2559967,-7
4128,MBS International Airport,Saginaw,MBS,43.53290176,-84.07959747,-5
4129,Greater Binghamton/Edwin A Link field,Binghamton,BGM,42.20869827,-75.97979736,-5
4136,Blythe Airport,Blythe,BLH,33.61920166,-114.7170029,-8
4147,Petersburg James A Johnson Airport,Petersburg,PSG,56.80170059,-132.9450073,-9
4167,Orlando Sanford International Airport,Sanford,SFB,28.77759933,-81.23750305,-5
4169,John Murtha Johnstown Cambria County Airport,Johnstown,JST,40.31610107,-78.83390045,-5
4216,Missoula International Airport,Missoula,MSO,46.91630173,-114.0910034,-7
4219,Grand Canyon National Park Airport,Grand Canyon,GCN,35.95240021,-112.1470032,-7
4220,Sugar Land Regional Airport,Sugar Land,SGR,29.62229919,-95.65650177,-6
4222,Centennial Airport,Denver,APA,39.57009888,-104.848999,-7
4223,Clovis Municipal Airport,Clovis,CVN,34.42509842,-103.0790024,-7
4224,Fort Stockton Pecos County Airport,Fort Stockton,FST,30.91570091,-102.9160004,-6
4225,Las Vegas Municipal Airport,Las Vegas,LVS,35.65420151,-105.1419983,-7
4226,West Houston Airport,Houston,IWS,29.81819916,-95.67259979,-6
4228,Las Cruces International Airport,Las Cruces,LRU,32.28939819,-106.9219971,-7
4229,Stephens County Airport,Breckenridge,BKD,32.71900177,-98.89099884,-6
4230,Draughon Miller Central Texas Regional Airport,Temple,TPL,31.15250015,-97.40779877,-6
4231,Ozona Municipal Airport,Ozona,OZA,30.73530006,-101.2030029,-6
4250,Eagle County Regional Airport,Vail,EGE,39.64260101,-106.9179993,-7
4253,Cuyahoga County Airport,Richmond Heights,CGF,41.56510162,-81.48639679,-5
4254,Mansfield Lahm Regional Airport,Mansfield,MFD,40.82139969,-82.51660156,-5
4255,Columbus Metropolitan Airport,Columbus,CSG,32.5163002,-84.93890381,-5
4256,Lawton Fort Sill Regional Airport,Lawton,LAW,34.56769943,-98.41660309,-6
4257,Northern Colorado Regional Airport,Fort Collins,FNL,40.451804,-105.011,-7
4261,Flagstaff Pulliam Airport,Flagstaff,FLG,35.13850021,-111.6709976,-7
4262,Lake Tahoe Airport,South Lake Tahoe,TVL,38.89390182,-119.9950027,-8
4263,Joslin Field Magic Valley Regional Airport,Twin Falls,TWF,42.4818,-114.487999,-7
4265,Martha's Vineyard Airport,Vineyard Haven MA,MVY,41.39310074,-70.61430359,-5
4268,Concord Municipal Airport,Concord NH,CON,43.20270157,-71.50229645,-5
4270,Groton New London Airport,Groton CT,GON,41.33010101,-72.04509735,-5
4271,St Cloud Regional Airport,Saint Cloud,STC,45.54660034,-94.05989838,-6
4273,Golden Triangle Regional Airport,Columbus Mississippi,GTR,33.45029831,-88.59140015,-6
4275,Bowerman Airport,Hoquiam,HQM,46.97119904,-123.9369965,-8
4276,Erie International Tom Ridge Field,Erie,ERI,42.08312701,-80.17386675,-5
4278,Barnstable Municipal Boardman Polando Field,Barnstable,HYA,41.66930008,-70.28040314,-5
4280,Sedona Airport,Sedona,SDX,34.84859848,-111.788002,-7
4284,Morgantown Municipal Walter L. Bill Hart Field,Morgantown,MGW,39.64289856,-79.91629791,-5
4285,Yeager Airport,Charleston,CRW,38.37310028,-81.59320068,-5
4286,Wilkes Barre Scranton International Airport,Scranton,AVP,41.33850098,-75.7233963,-5
4287,Bemidji Regional Airport,Bemidji,BJI,47.50939941,-94.93370056,-6
4292,Hector International Airport,Fargo,FAR,46.92070007,-96.81580353,-6
4293,Charles B. Wheeler Downtown Airport,Kansas City,MKC,39.12319946,-94.59279633,-6
4296,Gillette Campbell County Airport,Gillette,GCC,44.34889984,-105.5390015,-7
4298,El Toro Marine Corps Air Station,Santa Ana,NZJ,33.67610168,-117.7310028,-8
4318,University Park Airport,State College Pennsylvania,SCE,40.84930038,-77.84870148,-5
4335,Key Field,Meridian,MEI,32.33259964,-88.75189972,-6
4336,Abraham Lincoln Capital Airport,Springfield,SPI,39.84410095,-89.67790222,-6
4338,Cortez Municipal Airport,Cortez,CEZ,37.3030014,-108.6279984,-7
4339,Yampa Valley Airport,Hayden,HDN,40.48120117,-107.2180023,-7
4340,Gallup Municipal Airport,Gallup,GUP,35.51110077,-108.7890015,-7
4341,Liberal Mid-America Regional Airport,Liberal,LBL,37.0442009,-100.9599991,-6
4342,Lamar Municipal Airport,Lamar,LAA,38.06969833,-102.6880035,-7
4343,Renner Field-Goodland Municipal Airport,Goodland,GLD,39.37060165,-101.6989975,-7
4344,Yellowstone Regional Airport,Cody,COD,44.52019882,-109.0240021,-7
4348,Springfield Branson National Airport,Springfield,SGF,37.24570084,-93.38860321,-6
4354,Joplin Regional Airport,Joplin,JLN,37.15179825,-94.49829865,-6
4355,Lehigh Valley International Airport,Allentown,ABE,40.65209961,-75.44080353,-5
4356,Northwest Arkansas Regional Airport,Bentonville,XNA,36.281898,-94.306801,-6
4359,South Bend Regional Airport,South Bend,SBN,41.70869827,-86.31729889,-5
4383,Smith Field,Fort Wayne IN,SMD,41.14339828,-85.15280151,-5
4384,California Redwood Coast-Humboldt County Airport,Arcata CA,ACV,40.978101,-124.109,-8
4386,Albert J Ellis Airport,Jacksonville NC,OAJ,34.82920074,-77.61209869,-5
4387,Tuscaloosa Regional Airport,Tuscaloosa AL,TCL,33.22060013,-87.61139679,-6
4388,Dubuque Regional Airport,Dubuque IA,DBQ,42.40200043,-90.70950317,-6
5714,Aberdeen Regional Airport,Aberdeen,ABR,45.44910049,-98.42179871,-6
5715,Southwest Georgia Regional Airport,Albany,ABY,31.53549957,-84.19450378,-5
5716,Athens Ben Epps Airport,Athens,AHN,33.94860077,-83.32630157,-5
5717,Alamogordo White Sands Regional Airport,Alamogordo,ALM,32.83990097,-105.9909973,-7
5718,Waterloo Regional Airport,Waterloo,ALO,42.55709839,-92.40029907,-6
5719,Walla Walla Regional Airport,Walla Walla,ALW,46.09489822,-118.288002,-8
5720,Alpena County Regional Airport,Alpena,APN,45.0780983,-83.56030273,-5
5721,Watertown Regional Airport,Watertown,ATY,44.91400146,-97.15470123,-6
5722,Bradford Regional Airport,Bradford,BFD,41.80310059,-78.64009857,-5
5723,Western Neb. Rgnl/William B. Heilig Airport,Scottsbluff,BFF,41.87400055,-103.5960007,-7
5724,Raleigh County Memorial Airport,Beckley,BKW,37.78730011,-81.12419891,-5
5725,Brunswick Golden Isles Airport,Brunswick,BQK,31.25880051,-81.46649933,-5
5726,Southeast Iowa Regional Airport,Burlington,BRL,40.78319931,-91.12550354,-6
5727,Jack Mc Namara Field Airport,Crescent City,CEC,41.78020096,-124.2369995,-8
5728,Cape Girardeau Regional Airport,Cape Girardeau,CGI,37.22529984,-89.57080078,-6
5729,Chippewa County International Airport,Sault Ste Marie,CIU,46.25080109,-84.47239685,-5
5730,North Central West Virginia Airport,Clarksburg,CKB,39.29660034,-80.22810364,-5
5731,William R Fairchild International Airport,Port Angeles,CLM,48.12020111,-123.5,-8
5732,Houghton County Memorial Airport,Hancock,CMX,47.16839981,-88.4890976,-5
5733,Dodge City Regional Airport,Dodge City,DDC,37.76340103,-99.96559906,-6
5734,DuBois Regional Airport,Du Bois,DUJ,41.17829895,-78.8986969,-5
5735,Chippewa Valley Regional Airport,Eau Claire,EAU,44.86579895,-91.48429871,-6
5736,Elko Regional Airport,Elko,EKO,40.82490158,-115.7919998,-8
5737,New Bedford Regional Airport,New Bedford,EWB,41.67610168,-70.95690155,-5
5738,Fayetteville Regional Grannis Field,Fayetteville,FAY,34.99119949,-78.88030243,-5
5739,Wokal Field Glasgow International Airport,Glasgow,GGW,48.212502,-106.614998,-7
5740,Central Nebraska Regional Airport,Grand Island,GRI,40.96749878,-98.30960083,-6
5741,Memorial Field,Hot Springs,HOT,34.47800064,-93.09619904,-6
5742,Tri-State/Milton J. Ferguson Field,Huntington,HTS,38.36669922,-82.55799866,-5
5744,Kirksville Regional Airport,Kirksville,IRK,40.09349823,-92.54489899,-6
5745,Jamestown Regional Airport,Jamestown,JMS,46.92969894,-98.67819977,-6
5746,Laramie Regional Airport,Laramie,LAR,41.31209946,-105.6750031,-7
5747,Arnold Palmer Regional Airport,Latrobe,LBE,40.27590179,-79.40480042,-5
5748,North Platte Regional Airport Lee Bird Field,North Platte,LBF,41.12620163,-100.6839981,-6
5749,Lebanon Municipal Airport,Lebanon,LEB,43.62609863,-72.30419922,-5
5750,Crater Lake-Klamath Regional Airport,Klamath Falls,LMT,42.156101,-121.733002,-8
5751,Lancaster Airport,Lancaster,LNS,40.12170029,-76.2960968,-5
5752,Lewistown Municipal Airport,Lewistown,LWT,47.04930115,-109.4670029,-7
5753,Lynchburg Regional Preston Glenn Field,Lynchburg,LYH,37.3266983,-79.20040131,-5
5754,Muskegon County Airport,Muskegon,MKG,43.16949844,-86.23819733,-5
5755,Frank Wiley Field,Miles City,MLS,46.4280014,-105.8860016,-7
5756,Northwest Alabama Regional Airport,Muscle Shoals,MSL,34.74530029,-87.61019897,-6
5757,Southwest Oregon Regional Airport,North Bend,OTH,43.417099,-124.2460022,-8
5758,Owensboro Daviess County Airport,Owensboro,OWB,37.74010086,-87.16680145,-6
5759,Hattiesburg Laurel Regional Airport,Hattiesburg/Laurel,PIB,31.46710014,-89.33709717,-6
5760,Pocatello Regional Airport,Pocatello,PIH,42.90980148,-112.5960007,-7
5761,Pierre Regional Airport,Pierre,PIR,44.38270187,-100.2860031,-6
5762,Pellston Regional Airport of Emmet County Airport,Pellston,PLN,45.57089996,-84.79669952,-5
5763,Portsmouth International at Pease Airport,Portsmouth,PSM,43.07789993,-70.82330322,-5
5764,Reading Regional Carl A Spaatz Field,Reading,RDG,40.37850189,-75.96520233,-5
5765,Rhinelander Oneida County Airport,Rhinelander,RHI,45.63119888,-89.46749878,-6
5766,Southwest Wyoming Regional Airport,Rock Springs,RKS,41.5942,-109.065001,-7
5767,Rutland - Southern Vermont Regional Airport,Rutland,RUT,43.52939987,-72.94960022,-5
5768,San Luis County Regional Airport,San Luis Obispo,SBP,35.23680115,-120.6419983,-8
5769,Sheridan County Airport,Sheridan,SHR,44.76919937,-106.9800034,-7
5770,Adirondack Regional Airport,Saranac Lake,SLK,44.38529968,-74.20619965,-5
5771,Salina Municipal Airport,Salina,SLN,38.79100037,-97.65219879,-6
5772,Santa Maria Pub/Capt G Allan Hancock Field,Santa Maria,SMX,34.89889908,-120.4570007,-8
5773,Tupelo Regional Airport,Tupelo,TUP,34.26810074,-88.76989746,-6
5774,Quincy Regional Baldwin Field,Quincy,UIN,39.94269943,-91.19460297,-6
5775,Victoria Regional Airport,Victoria,VCT,28.8526001,-96.91850281,-6
5776,Valdosta Regional Airport,Valdosta,VLD,30.78249931,-83.27670288,-5
5777,Worland Municipal Airport,Worland,WRL,43.96569824,-107.9509964,-7
5779,Yakima Air Terminal McAllister Field,Yakima,YKM,46.56819916,-120.5439987,-8
5959,Adak Airport,Adak Island,ADK,51.87799835,-176.6459961,-10
5960,Gustavus Airport,Gustavus,GST,58.4253006,-135.7070007,-9
5961,Skagway Airport,Skagway,SGY,59.46009827,-135.3159943,-9
5962,Holy Cross Airport,Holy Cross,HCR,62.18830109,-159.7749939,-9
5963,Haines Airport,Haines,HNS,59.24380112,-135.5240021,-9
5964,Kalskag Airport,Kalskag,KLG,61.53630066,-160.3410034,-9
5965,McGrath Airport,Mcgrath,MCG,62.95289993,-155.6060028,-9
5966,Mountain Village Airport,Mountain Village,MOU,62.09540176,-163.6820068,-9
5967,Aniak Airport,Aniak,ANI,61.58160019,-159.5429993,-9
5968,Chevak Airport,Chevak,VAK,61.5409,-165.6005,-9
5969,Wrangell Airport,Wrangell,WRG,56.48429871,-132.3699951,-9
5989,Kalaupapa Airport,Molokai,LUP,21.21100044,-156.973999,-10
6126,Aleknagik / New Airport,Aleknagik,WKK,59.2826004,-158.6179962,-9
6128,Mercer County Airport,Bluefield,BLF,37.29579926,-81.20770264,-5
6130,Mid Delta Regional Airport,Greenville,GLH,33.48289871,-90.98560333,-6
6133,Tri Cities Airport,Pasco,PSC,46.26470184,-119.1190033,-8
6134,Akutan Seaplane Base,Akutan,KQA,54.13377044,-165.7788956,-9
6136,Lopez Island Airport,Lopez,LPS,48.48389816,-122.9380035,-8
6415,Waikoloa Heliport,Waikoloa Village,WKL,19.9205,-155.8607,-10
6426,Worcester Regional Airport,Worcester,ORH,42.26729965,-71.8757019,-5
6445,Bremerton National Airport,Bremerton,PWT,47.49020004,-122.7649994,-8
6446,Spencer Municipal Airport,Spencer,SPW,43.16550064,-95.20279694,-6
6447,Jefferson City Memorial Airport,Jefferson City,JEF,38.59120178,-92.15609741,-6
6456,Provincetown Municipal Airport,Provincetown,PVC,42.07189941,-70.2213974,-5
6481,Fullerton Municipal Airport,Fullerton,FUL,33.87200165,-117.9800034,-8
6482,Concord-Padgett Regional Airport,Concord,USA,35.387798,-80.709099,-5
6494,Friedman Memorial Airport,Hailey,SUN,43.50439835,-114.2959976,-7
6500,Mason City Municipal Airport,Mason City,MCW,43.15779877,-93.33129883,-6
6505,Phoenix-Mesa-Gateway Airport,Mesa,AZA,33.30780029,-111.6549988,-7
6712,Anaktuvuk Pass Airport,Anaktuvuk Pass,AKP,68.13359833,-151.7429962,-9
6713,Anvik Airport,Anvik,ANV,62.646702,-160.190994,-9
6714,Atqasuk Edward Burnell Sr Memorial Airport,Atqasuk,ATK,70.46730042,-157.4360046,-9
6715,Gambell Airport,Gambell,GAM,63.76679993,-171.7330017,-9
6716,Hooper Bay Airport,Hooper Bay,HPB,61.52389908,-166.1470032,-9
6717,Kaltag Airport,Kaltag,KAL,64.31909943,-158.7409973,-9
6718,St Mary's Airport,St Mary's,KSM,62.0605011,-163.302002,-9
6719,Kivalina Airport,Kivalina,KVL,67.73619843,-164.5630035,-9
6720,Mekoryuk Airport,Mekoryuk,MYU,60.37139893,-166.2709961,-9
6722,Ruby Airport,Ruby,RBY,64.72720337,-155.4700012,-9
6723,Shishmaref Airport,Shishmaref,SHH,66.249604,-166.089112,-9
6724,Savoonga Airport,Savoonga,SVA,63.68640137,-170.4929962,-9
6725,Noatak Airport,Noatak,WTK,67.56610107,-162.9750061,-9
6729,Arctic Village Airport,Arctic Village,ARC,68.1147,-145.578995,-9
6736,Port Clarence Coast Guard Station,Port Clarence,KPC,65.25370026,-166.8589935,-9
6739,Hagerstown Regional Richard A Henson Field,Hagerstown,HGR,39.707901,-77.72949982,-5
6742,Sand Point Airport,Sand Point,SDP,55.31499863,-160.522995,-9
6755,Deering Airport,Deering,DRG,66.06960297,-162.7660065,-9
6763,Igiugig Airport,Igiugig,IGG,59.32400131,-155.9019928,-9
6764,New Stuyahok Airport,New Stuyahok,KNW,59.44990158,-157.3280029,-9
6765,King Cove Airport,King Cove,KVC,55.11629868,-162.2660065,-9
6766,Port Heiden Airport,Port Heiden,PTH,56.95909882,-158.6329956,-9
6767,Togiak Airport,Togiak Village,TOG,59.05279922,-160.3970032,-9
6800,Delta County Airport,Escanaba,ESC,45.72269821,-87.09369659,-5
6803,Yakutat Airport,Yakutat,YAK,59.50329971,-139.6600037,-9
6825,Williamson County Regional Airport,Marion,MWA,37.75500107,-89.01110077,-6
6837,Ford Airport,Iron Mountain,IMT,45.81840134,-88.11450195,-6
6839,Allakaket Airport,Allakaket,AET,66.55180359,-152.621994,-9
6844,Michigan City Municipal Airport,Michigan City,MGC,41.70330048,-86.82119751,-6
6845,Seward Airport,Seward,SWD,60.12689972,-149.4190063,-9
6849,Grand Marais Cook County Airport,Grand Marais,GRM,47.8382988,-90.38289642,-6
6853,Wausau Downtown Airport,Wausau,AUW,44.92620087,-89.62660217,-6
6871,Delaware County Johnson Field,Muncie,MIE,40.24229813,-85.39589691,-5
6873,Purdue University Airport,Lafayette,LAF,40.41230011,-86.93689728,-5
6877,North Las Vegas Airport,Las Vegas,VGT,36.21070099,-115.1940002,-8
6878,Kenosha Regional Airport,Kenosha,ENW,42.59569931,-87.92780304,-6
6880,Montrose Regional Airport,Montrose CO,MTJ,38.50979996,-107.8939972,-7
6881,Riverton Regional Airport,Riverton WY,RIW,43.06420136,-108.4599991,-7
6883,Eastern Oregon Regional At Pendleton Airport,Pendleton,PDT,45.69509888,-118.8410034,-8
6909,Wittman Regional Airport,Oshkosh,OSH,43.9844017,-88.55699921,-6
6916,Pangborn Memorial Airport,Wenatchee,EAT,47.39889908,-120.2070007,-8
6948,NAS Fort Worth JRB/Carswell Field,Dallas,FWH,32.76919937,-97.4414978,-6
6956,Gary Chicago International Airport,Gary,GYY,41.61629868,-87.41280365,-6
6957,Brainerd Lakes Regional Airport,Brainerd,BRD,46.39830017,-94.13809967,-6
6958,Greenbrier Valley Airport,Lewisburg,LWB,37.85829926,-80.39949799,-5
6959,Pitt Greenville Airport,Greenville,PGV,35.6352005,-77.38529968,-5
6960,Chefornak Airport,Chefornak,CYF,60.14920044,-164.2859955,-9
6961,Oxnard Airport,Oxnard,OXR,34.20080185,-119.2070007,-8
6962,Branson Airport,Branson,BKG,36.532082,-93.200544,-6
6968,Schenectady County Airport,Scotia NY,SCH,42.85250092,-73.92890167,-5
6989,Northeast Florida Regional Airport,St. Augustine Airport,UST,29.9592,-81.339798,-5
6992,Charles M. Schulz Sonoma County Airport,Santa Rosa,STS,38.50899887,-122.8130035,-8
6993,Kissimmee Gateway Airport,Kissimmee,ISM,28.28980064,-81.43710327,-5
6994,Lake City Gateway Airport,Lake City,LCQ,30.18199921,-82.57689667,-5
6998,Logan-Cache Airport,Logan,LGU,41.79119873,-111.8519974,-7
6999,Brigham City Regional Airport,Brigham City,BMC,41.552399,-112.061996,-7
7001,Aspen-Pitkin Co/Sardy Field,Aspen,ASE,39.22320175,-106.8690033,-7
7009,Kerrville Municipal Louis Schreiner Field,Kerrville,ERV,29.97669983,-99.08570099,-6
7011,Sussex County Airport,Georgetown,GED,38.68920135,-75.35890198,-5
7013,Great Bend Municipal Airport,Great Bend,GBD,38.34429932,-98.85919952,-6
7014,Hays Regional Airport,Hays,HYS,38.84220123,-99.27320099,-6
7015,Spirit of St Louis Airport,Null,SUS,38.66210175,-90.65200043,-6
7016,Ely Municipal Airport,Ely,LYU,47.82450104,-91.83070374,-6
7017,Grand Rapids Itasca Co-Gordon Newstrom field,Grand Rapids MN,GPZ,47.21110153,-93.50980377,-6
7018,Thief River Falls Regional Airport,Thief River Falls,TVF,48.06570053,-96.18499756,-6
7019,Eagle River Union Airport,Eagle River,EGV,45.93230057,-89.26830292,-6
7020,Lakeland-Noble F. Lee Memorial field,Minocqua - Woodruff,ARV,45.92789841,-89.73090363,-6
7025,Catalina Airport,Catalina Island,AVX,33.4049,-118.416,-8
7026,Mojave Airport,Mojave,MHV,35.05939865,-118.1520004,-8
7035,Hutchinson Municipal Airport,Hutchinson,HUT,38.06549835,-97.86060333,-6
7042,Rosecrans Memorial Airport,Rosecrans,STJ,39.77190018,-94.90969849,-6
7048,Volk Field,Camp Douglas,VOK,43.93899918,-90.25340271,-6
7051,Gunnison Crested Butte Regional Airport,Gunnison,GUC,38.53390121,-106.9329987,-7
7053,Zamperini Field,Torrance,TOA,33.80339813,-118.3399963,-8
7054,Manistee Co Blacker Airport,Manistee,MBL,44.2723999,-86.24690247,-5
7056,Charlotte County Airport,Punta Gorda,PGD,26.92020035,-81.9905014,-5
7058,Northern Aroostook Regional Airport,Frenchville,WFK,47.28549957,-68.31279755,-5
7059,Chautauqua County-Jamestown Airport,Jamestown,JHW,42.15340042,-79.25800323,-5
7061,Lake Cumberland Regional Airport,Somerset,SME,37.05339813,-84.61589813,-5
7062,Shenandoah Valley Regional Airport,Weyers Cave,SHD,38.26380157,-78.89640045,-5
7063,Devils Lake Regional Airport,Devils Lake,DVL,48.11420059,-98.90879822,-6
7064,Dickinson Theodore Roosevelt Regional Airport,Dickinson,DIK,46.79740143,-102.802002,-7
7065,Sidney - Richland Regional Airport,Sidney,SDY,47.706902,-104.193001,-7
7066,Chadron Municipal Airport,Chadron,CDR,42.83760071,-103.0950012,-7
7067,Alliance Municipal Airport,Alliance,AIA,42.05319977,-102.8040009,-7
7068,Mc Cook Ben Nelson Regional Airport,McCook,MCK,40.20629883,-100.5920029,-6
7069,The Florida Keys Marathon Airport,Marathon,MTH,24.726101,-81.051399,-5
7070,Dawson Community Airport,Glendive,GDV,47.13869858,-104.8069992,-7
7071,L M Clayton Airport,Wolf Point,OLF,48.0945015,-105.5749969,-7
7072,Yellowstone Airport,West Yellowstone,WYS,44.68840027,-111.1179962,-7
7073,San Luis Valley Regional Bergman Field,Alamosa,ALS,37.434898,-105.866997,-7
7074,Canyonlands Field,Moab,CNY,38.75500107,-109.7549973,-7
7075,Ely Airport Yelland Field,Ely,ELY,39.29970169,-114.8420029,-8
7076,Vernal Regional Airport,Vernal,VEL,40.4408989,-109.5100021,-7
7077,Sierra Blanca Regional Airport,Ruidoso,RUI,33.46279907,-105.5350037,-7
7078,Show Low Regional Airport,Show Low,SOW,34.26549912,-110.0059967,-7
7079,McCall Municipal Airport,McCall,MYL,44.88970184,-116.1009979,-7
7080,Lemhi County Airport,Salmon,SMN,45.12379837,-113.8809967,-7
7081,Mammoth Yosemite Airport,Mammoth Lakes,MMH,37.62409973,-118.8379974,-8
7082,Friday Harbor Airport,Friday Harbor,FRD,48.52199936,-123.0240021,-8
7083,Orcas Island Airport,Eastsound,ESD,48.70819855,-122.9100037,-8
7085,Astoria Regional Airport,Astoria,AST,46.15800095,-123.8789978,-8
7086,Newport Municipal Airport,Newport,ONP,44.580399,-124.057999,-8
7087,Emmonak Airport,Emmonak,EMK,62.78609848,-164.4909973,-9
7088,Unalakleet Airport,Unalakleet,UNK,63.88840103,-160.798996,-9
7089,Ugnu-Kuparuk Airport,Kuparuk,UUK,70.33080292,-149.5980072,-9
7090,Shageluk Airport,Shageluk,SHX,62.69229889,-159.5690002,-9
7091,Chuathbaluk Airport,Chuathbaluk,CHU,61.579102,-159.216003,-9
7092,Nuiqsut Airport,Nuiqsut,NUI,70.20999908,-151.0059967,-9
7093,Eek Airport,Eek,EEK,60.21367264,-162.0438843,-9
7094,Kasigluk Airport,Kasigluk,KUK,60.87440109,-162.5240021,-9
7095,Kwethluk Airport,Kwethluk,KWT,60.79029846,-161.4440002,-9
7096,Kwigillingok Airport,Kwigillingok,KWK,59.876499,-163.169005,-9
7097,Marshall Don Hunter Sr Airport,Marshall,MLL,61.86429977,-162.026001,-9
7098,Russian Mission Airport,Russian Mission,RSH,61.77888489,-161.319458,-9
7101,Koliganek Airport,Koliganek,KGK,59.72660065,-157.2590027,-9
7103,Manokotak Airport,Manokotak,KMO,58.99020004,-159.0500031,-9
7105,Chalkyitsik Airport,Chalkyitsik,CIK,66.64499664,-143.7400055,-9
7106,Eagle Airport,Eagle,EAA,64.77639771,-141.151001,-9
7107,Hughes Airport,Hughes,HUS,66.04109955,-154.2630005,-9
7108,Huslia Airport,Huslia,HSL,65.69789886,-156.3509979,-9
7111,Nulato Airport,Nulato,NUL,64.729301,-158.074005,-9
7114,Venetie Airport,Venetie,VEE,67.00869751,-146.3659973,-9
7115,Beaver Airport,Beaver,WBQ,66.36219788,-147.4069977,-9
7116,Central Airport,Central,CEM,65.57379913,-144.7830048,-9
7117,Shungnak Airport,Shungnak,SHG,66.88809967,-157.1620026,-9
7120,Inyokern Airport,Inyokern,IYK,35.65879822,-117.8300018,-8
7121,Visalia Municipal Airport,Visalia,VIS,36.31869888,-119.3929977,-8
7122,Merced Regional Macready Field,Merced,MCE,37.28469849,-120.5139999,-8
7126,Phoenix Goodyear Airport,Goodyear,GYR,33.42250061,-112.3759995,-7
7135,Angoon Seaplane Base,Angoon,AGN,57.503601,-134.585007,-9
7136,Elfin Cove Seaplane Base,Elfin Cove,ELV,58.19520187,-136.3470001,-9
7140,Funter Bay Seaplane Base,Funter Bay,FNR,58.25439835,-134.897995,-9
7142,Hoonah Airport,Hoonah,HNH,58.0961,-135.410111,-9
7146,Metlakatla Seaplane Base,Metakatla,MTM,55.131001,-131.578003,-9
7148,Hydaburg Seaplane Base,Hydaburg,HYG,55.20629883,-132.8280029,-9
7154,Egegik Airport,Egegik,EGX,58.1855011,-157.375,-9
7157,Perryville Airport,Perryville,KPV,55.905998,-159.162993,-9
7158,Pilot Point Airport,Pilot Point,PIP,57.58039856,-157.5720062,-9
7159,South Naknek Nr 2 Airport,South Naknek,WSN,58.70339966,-157.0079956,-9
7160,Akhiok Airport,Akhiok,AKK,56.93870163,-154.1829987,-9
7161,Karluk Airport,Karluk,KYK,57.56710052,-154.4499969,-9
7162,Larsen Bay Airport,Larsen Bay,KLN,57.53509903,-153.9779968,-9
7177,Ambler Airport,Ambler,ABL,67.1063,-157.856989,-9
7178,Buckland Airport,Buckland,BKC,65.9815979,-161.1490021,-9
7179,Bob Baker Memorial Airport,Kiana,IAN,66.97599792,-160.4369965,-9
7180,Kobuk Airport,Kobuk,OBU,66.91230011,-156.8970032,-9
7181,Robert (Bob) Curtis Memorial Airport,Noorvik,ORV,66.81790161,-161.0189972,-9
7182,Selawik Airport,Selawik,WLK,66.60009766,-159.9859924,-9
7183,Brevig Mission Airport,Brevig Mission,KTS,65.33129883,-166.4660034,-9
7184,Elim Airport,Elim,ELI,64.61470032,-162.2720032,-9
7185,Golovin Airport,Golovin,GLV,64.55049896,-163.0070038,-9
7186,Teller Airport,Teller,TLA,65.24040222,-166.3390045,-9
7187,Wales Airport,Wales,WAA,65.622593,-168.095,-9
7188,White Mountain Airport,White Mountain,WMO,64.68920136,-163.4129944,-9
7190,Koyuk Alfred Adams Airport,Koyuk,KKA,64.9394989,-161.154007,-9
7191,St Michael Airport,St. Michael,SMK,63.49010086,-162.1100006,-9
7192,Shaktoolik Airport,Shaktoolik,SKK,64.37110138,-161.223999,-9
7194,Tin City Long Range Radar Station Airport,Tin City,TNC,65.56310272,-167.9219971,-9
7195,Atka Airport,Atka,AKB,52.22029877,-174.2059937,-10
7196,Nikolski Air Station,Nikolski,IKO,52.9416008,-168.848999,-9
7198,Yakataga Airport,Yakataga,CYT,60.080974,-142.494541,-9
7199,Alakanuk Airport,Alakanuk,AUK,62.68004227,-164.6599274,-9
7201,Kipnuk Airport,Kipnuk,KPN,59.93299866,-164.0310059,-9
7202,False Pass Airport,False Pass,KFP,54.84740067,-163.4100037,-9
7203,Nelson Lagoon Airport,Nelson Lagoon,NLG,56.00749969,-161.1600037,-9
7204,Port Moller Airport,Cold Bay,PML,56.00600052,-160.5610046,-9
7205,Klawock Airport,Klawock,KLW,55.57920074,-133.076004,-9
7206,Quinhagak Airport,Quinhagak,KWN,59.7551,-161.845,-9
7207,Kotlik Airport,Kotlik,KOT,63.0306015,-163.5330048,-9
7208,Koyukuk Airport,Koyukuk,KYU,64.87609863,-157.727005,-9
7209,Scammon Bay Airport,Scammon Bay,SCM,61.84529877,-165.5709991,-9
7210,Nondalton Airport,Nondalton,NNL,59.98020172,-154.8390045,-9
7213,Kongiganak Airport,Kongiganak,KKH,59.96080017,-162.8809967,-9
7214,Nikolai Airport,Nikolai,NIB,63.0186,-154.358002,-9
7217,Akiak Airport,Akiak,AKI,60.9029007,-161.2310028,-9
7220,Wainwright Airport,Wainwright,AIN,70.63800049,-159.9949951,-9
7233,Chenega Bay Airport,Chenega,NCN,60.07730103,-147.9920044,-9
7235,Tok Junction Airport,Tok,TKJ,63.32949829,-142.9539948,-9
7236,Circle City /New/ Airport,Circle,IRC,65.830498,-144.076008,-9
7240,Sleetmute Airport,Sleetmute,SLQ,61.70050049,-157.1660004,-9
7245,Minchumina Airport,Lake Minchumina,LMA,63.886002,-152.302002,-9
7246,Manley Hot Springs Airport,Manley Hot Springs,MLY,64.99759674,-150.6439972,-9
7415,Eastern WV Regional Airport/Shepherd Field,Martinsburg,MRB,39.40190125,-77.98459625,-5
7494,Rock Hill - York County Airport,Rock Hill,RKH,34.9878006,-81.05719757,-5
7495,Allegheny County Airport,Pittsburgh,AGC,40.35440063,-79.93019867,-5
7496,Cecil Airport,Jacksonville,VQQ,30.21870041,-81.87670136,-5
7497,Fulton County Airport Brown Field,Atlanta,FTY,33.77909851,-84.52140045,-5
7511,The Ohio State University Airport - Don Scott Field,Columbus,OSU,40.0798,-83.072998,-5
7513,Addison Airport,Addison,ADS,32.96860123,-96.83640289,-6
7514,Destin Executive Airport,Destin,DSI,30.40010071,-86.47149658,-6
7522,Kinston Regional Jetport At Stallings Field,Kinston,ISO,35.33140183,-77.6088028,-5
7523,First Flight Airport,Kill Devil Hills,FFA,36.01819992,-75.6713028,-5
7579,Provo Municipal Airport,Provo,PVU,40.21920013,-111.7229996,-7
7580,Steamboat Springs Bob Adams Field,Steamboat Springs,SBS,40.5163002,-106.8659973,-7
7581,Delta Municipal Airport,Delta,DTA,39.38059998,-112.5080032,-7
7583,Carbon County Regional/Buck Davis Field,Price,PUC,39.61389923,-110.7509995,-7
7584,Los Alamos Airport,Los Alamos,LAM,35.87979889,-106.2689972,-7
7586,Lake Havasu City Airport,Lake Havasu City,HII,34.571098,-114.358002,-7
7587,Winslow Lindbergh Regional Airport,Winslow,INW,35.02190018,-110.7229996,-7
7588,Douglas Municipal Airport,Douglas,DGL,31.34259987,-109.5059967,-7
7621,Bartow Municipal Airport,Bartow,BOW,27.94339943,-81.78340149,-5
7629,Livermore Municipal Airport,Livermore,LVK,37.69340134,-121.8199997,-8
7630,Mariposa Yosemite Airport,Mariposa,RMY,37.51089859,-120.0400009,-8
7646,Jacqueline Cochran Regional Airport,Palm Springs,TRM,33.62670135,-116.1600037,-8
7647,Santa Monica Municipal Airport,Santa Monica,SMO,34.01580048,-118.4509964,-8
7648,Bermuda Dunes Airport,Palm Springs,UDD,33.74840164,-116.2750015,-8
7649,Scottsdale Airport,Scottsdale,SCF,33.6228981,-111.9110031,-7
7650,Olympia Regional Airport,Olympia,OLM,46.9693985,-122.9029999,-8
7652,Garfield County Regional Airport,Rifle,RIL,39.526299,-107.726997,-7
7653,Shively Field,SARATOGA,SAA,41.444901,-106.823997,-7
7654,DeKalb Peachtree Airport,Atlanta,PDK,33.87559891,-84.30200195,-5
7655,Monroe County Airport,Bloomington,BMG,39.14599991,-86.61669922,-5
7656,Witham Field,Stuart,SUA,27.18169975,-80.22109985,-5
7657,Morristown Municipal Airport,Morristown,MMU,40.79940033,-74.41490173,-5
7658,Napa County Airport,Napa,APC,38.2132,-122.280998,-8
7659,Brown Field Municipal Airport,San Diego,SDM,32.57229996,-116.9800034,-8
7662,Venice Municipal Airport,Venice,VNC,27.07159996,-82.44029999,-5
7663,Palm Beach County Glades Airport,Pahokee,PHK,26.78499985,-80.69339752,-5
7669,Northwest Florida Beaches International Airport,Panama City,ECP,30.357106,-85.795414,-6
7670,San Bernardino International Airport,San Bernardino,SBD,34.09540176,-117.2350006,-8
7683,San Carlos Airport,San Carlos,SQL,37.51190186,-122.25,-8
7690,Rocky Mount Wilson Regional Airport,Rocky Mount,RWI,35.85630035,-77.89189911,-5
7692,Soldotna Airport,Soldotna,SXQ,60.47570038,-151.0339966,-9
7693,Gillespie Field,El Cajon,SEE,32.82619858,-116.9720001,-8
7702,Truckee Tahoe Airport,Truckee,TKF,39.31999969,-120.1399994,-8
7717,Mission Field,Livingston-Montana,LVM,45.69940186,-110.447998,-7
7727,Monument Valley Airport,Monument Valley,GMV,37.01670074,-110.2009964,-7
7729,West 30th St. Heliport,New York,JRA,40.754501,-74.007103,-5
7732,Lakeland Linder International Airport,Lakeland,LAL,27.988899,-82.018602,-5
7769,French Valley Airport,Murrieta-Temecula,RBK,33.57419968,-117.1279984,-8
7776,Dayton-Wright Brothers Airport,Dayton,MGY,39.5890007,-84.22489929,-5
7778,Findlay Airport,Findley,FDY,41.01350021,-83.66870117,-5
7809,Black Hills Airport-Clyde Ice Field,Spearfish-South Dakota,SPF,44.4803009,-103.7829971,-7
7817,Olive Branch Airport,Olive Branch,OLV,34.97869873,-89.78690338,-6
7822,Rocky Mountain Metropolitan Airport,Broomfield-CO,BJC,39.90879822,-105.1169968,-7
7826,Salem Municipal Airport/McNary Field,Salem,SLE,44.90950012,-123.0029984,-8
7827,Tunica Municipal Airport,Tunica,UTM,34.68099976,-90.34670258,-6
7839,Lawrence J Timmerman Airport,Milwaukee,MWC,43.110401,-88.034401,-6
7840,Southern Wisconsin Regional Airport,Janesville,JVL,42.62030029,-89.04160309,-6
7847,Gwinnett County Briscoe Field,Lawrenceville,LZU,33.97809982,-83.96240234,-5
7848,Bowling Green Warren County Regional Airport,Bowling Green,BWG,36.96450043,-86.41970062,-6
7849,Richard Lloyd Jones Jr Airport,Tulsa,RVS,36.03960037,-95.98459625,-6
7857,Bryce Canyon Airport,Bryce Canyon,BCE,37.70640183,-112.1449966,-7
7869,New Century Aircenter Airport,Olathe,JCI,38.83089828,-94.89029694,-6
7870,Easton Newnam Field,Easton,ESN,38.80419922,-76.06900024,-5
7875,Yuba County Airport,Yuba City,MYV,39.09780121,-121.5699997,-8
7880,Halliburton Field,Duncan,DUC,34.47090149,-97.9598999,-6
7885,Garner Field,Uvalde,UVA,29.2112999,-99.74359894,-6
7886,Lewis University Airport,Lockport,LOT,41.6072998,-88.09619904,-6
7888,Buchanan Field,Concord,CCR,37.98970032,-122.0569992,-8
7889,Ocean Reef Club Airport,Ocean Reef Club Airport,OCA,25.3253994,-80.27480316,-5
7907,Ohio University Snyder Field,Athens,ATO,39.21099854,-82.23139954,-5
7908,Springfield-Beckley Municipal Airport,Springfield,SGH,39.84030151,-83.84020233,-5
7925,Philip Billard Municipal Airport,Topeka,TOP,39.06869888,-95.62249756,-6
7930,Smyrna Airport,Smyrna,MQY,36.00899887,-86.52010345,-6
7931,Franklin County Airport,Sewanee,UOS,35.20510101,-85.89810181,-6
7936,Chicago Executive Airport,Chicago-Wheeling,PWK,42.114222,-87.901494,-6
7938,Southwest Washington Regional Airport,Kelso,KLS,46.11800003,-122.8980026,-8
7978,Wilmington Airpark,Wilmington,ILN,39.42789841,-83.792099,-5
7979,Marana Regional Airport,Tucson,AVW,32.4095993,-111.2180023,-7
7980,Casa Grande Municipal Airport,Casa Grande,CGZ,32.954899,-111.766998,-7
7982,Buckeye Municipal Airport,Buckeye,BXK,33.42039871,-112.685997,-7
7984,McMinn County Airport,Athens,MMI,35.39730072,-84.56259918,-5
7985,Sterling Municipal Airport,Sterling,STK,40.61529922,-103.2649994,-7
7986,Rawlins Municipal Airport/Harvey Field,Rawlins,RWL,41.80559921,-107.1999969,-7
7990,Essex County Airport,Caldwell,CDW,40.87519836,-74.28140259,-5
7991,Lee C Fine Memorial Airport,Kaiser Lake Ozark,AIZ,38.09600067,-92.54949951,-6
7998,Thomasville Regional Airport,Thomasville,TVI,30.90159988,-83.88130188,-5
7999,Henderson Executive Airport,Henderson,HSH,35.97280121,-115.1340027,-8
8005,Henry Tift Myers Airport,Tifton,TMA,31.42900085,-83.4885025,-5
8030,Phoenix Deer Valley Airport,Phoenix ,DVT,33.68830109,-112.0830002,-7
8034,Republic Airport,Farmingdale,FRG,40.72880173,-73.41339874,-5
8050,McKinley National Park Airport,McKinley Park,MCL,63.73260117,-148.9109955,-9
8052,Prospect Creek Airport,Prospect Creek,PPC,66.81410217,-150.6439972,-9
8062,Wheeling Ohio County Airport,Wheeling,HLG,40.17499924,-80.64630127,-5
8077,Aransas County Airport,Rockport,RKP,28.08679962,-97.04460144,-6
8121,Portland Troutdale Airport,Troutdale,TTD,45.54940033,-122.401001,-8
8122,Portland Hillsboro Airport,Hillsboro,HIO,45.540401,-122.949997,-8
8135,Burns Municipal Airport,Burns,BNO,43.59189987,-118.9550018,-8
8136,Prineville Airport,Prineville,PRZ,44.28699875,-120.9039993,-8
8137,Red Bluff Municipal Airport,Red Bluff,RBL,40.15069962,-122.2519989,-8
8138,Marin County Airport - Gnoss Field,Novato,NOT,38.14360046,-122.5559998,-8
8139,Lake County Airport,Lakeview,LKV,42.16109848,-120.3990021,-8
8140,Tillamook Airport,Tillamook,OTK,45.41820145,-123.814003,-8
8141,Ontario Municipal Airport,Ontario,ONO,44.02050018,-117.0139999,-7
8142,Columbia Gorge Regional the Dalles Municipal Airport,The Dalles,DLS,45.61849976,-121.1669998,-8
8143,Montgomery County Airpark,Gaithersburg,GAI,39.16830063,-77.16600037,-5
8187,Morrisville Stowe State Airport,Morrisville,MVL,44.5345993,-72.61399841,-5
8188,Dallas Executive Airport,Dallas,RBD,32.68090057,-96.86820221,-6
8194,Westerly State Airport,Washington County,WST,41.34960175,-71.80339813,-5
8195,Block Island State Airport,Block Island,BID,41.16809845,-71.57779694,-5
8199,Nightmute Airport,Nightmute,NME,60.47100067,-164.701004,-9
8200,Toksook Bay Airport,Toksook Bay,OOK,60.54140091,-165.0870056,-9
8215,Decatur County Industrial Air Park,Bainbridge,BGE,30.9715004,-84.63739777,-5
8220,Whiteman Airport,Los Angeles,WHP,34.25930023,-118.413002,-8
8221,Madera Municipal Airport,Madera,MAE,36.98860168,-120.1119995,-8
8252,Apalachicola Regional Airport,Apalachicola,AAF,29.72750092,-85.02749634,-5
8274,St Lucie County International Airport,Fort Pierce,FPR,27.49510002,-80.36830139,-5
8277,Plymouth Municipal Airport,Plymouth,PYM,41.909,-70.728798,-5
8278,Quonset State Airport,North Kingstown,NCO,41.5970993,-71.41210175,-5
8280,Norwood Memorial Airport,Norwood,OWD,42.19049835,-71.17289734,-5
8281,Westfield-Barnes Regional Airport,Westfield,BAF,42.157799,-72.715599,-5
8283,Orange County Airport,Montgomery,MGJ,41.50999832,-74.26460266,-5
8284,Capital City Airport,Harrisburg,HAR,40.21709824,-76.85150146,-5
8286,Danbury Municipal Airport,Danbury,DXR,41.37149811,-73.48220062,-5
8287,Boire Field,Nashua,ASH,42.78170013,-71.51480103,-5
8288,Lawrence Municipal Airport,Lawrence,LWM,42.71720123,-71.12339783,-5
8289,Waterbury Oxford Airport,Oxford,OXC,41.47859955,-73.1352005,-5
8294,Richard B Russell Airport,Rome,RMG,34.3506012,-85.15799713,-5
8295,Northeast Alabama Regional Airport,Gadsden,GAD,33.972599,-86.088996,-6
8297,Barrow County Airport,Winder,WDR,33.98289871,-83.66739655,-5
8299,Dalton Municipal Airport,Dalton,DNN,34.72290039,-84.87020111,-5
8302,LaGrange Callaway Airport,LaGrange,LGC,33.0089,-85.072601,-5
8305,Harris County Airport,Pine Mountain,PIM,32.84069824,-84.88240051,-5
8308,Lee Gilmer Memorial Airport,Gainesville,GVL,34.27259827,-83.8302002,-5
8312,Harry Clever Field,New Philadelpha,PHD,40.47090149,-81.41970062,-5
8314,Hilton Head Airport,Hilton Head Island,HHH,32.22439957,-80.69750214,-5
8318,Daniel Field,Augusta,DNL,33.46649933,-82.03939819,-5
8319,Foothills Regional Airport,Morganton,MRN,35.820202,-81.611397,-5
8320,Pike County-Hatcher Field,Pikeville,PVL,37.5617981,-82.56639862,-5
8322,Toccoa Airport - R.G. Letourneau Field,Toccoa,TOC,34.59379959,-83.29579926,-5
8342,Fort Worth Alliance Airport,Fort Worth,AFW,32.98759842,-97.31880188,-6
8366,Lawrence Municipal Airport,Lawrence,LWC,39.01119995,-95.21659851,-6
8379,Pompano Beach Airpark,Pompano Beach,PPM,26.24710083,-80.11109924,-5
8410,London-Corbin Airport/Magee Field,London,LOZ,37.0821991,-84.0848999,-5
8412,Simmons Army Air Field,Fredericksburg,FBG,35.13180161,-78.93669891,-5
8430,John H Batten Airport,Racine,RAC,42.76060104,-87.81520081,-6
8446,Tacoma Narrows Airport,Tacoma,TIW,47.26789856,-122.5780029,-8
8460,Jack Edwards Airport,Gulf Shores,GUF,30.29050064,-87.67179871,-6
8473,Hazleton Municipal Airport,Hazleton,HZL,40.98680115,-75.99490356,-5
8474,Greater Cumberland Regional Airport,Cumberland,CBE,39.61539841,-78.7609024,-5
8493,Tri-County Regional Airport,Lone Rock,LNR,43.21170044,-90.18160248,-6
8496,Joliet Regional Airport,Joliet,JOT,41.51779938,-88.17549896,-6
8497,Illinois Valley Regional Airport-Walter A Duncan Field,Peru,VYS,41.351898,-89.153099,-6
8499,Jackson County Reynolds Field,Jackson,JXN,42.25979996,-84.45939636,-5
8504,Wings Field,Philadelphia,BBX,40.13750076,-75.26509857,-5
8505,Okeechobee County Airport,Okeechobee,OBE,27.26280022,-80.84980011,-5
8506,Sebring Regional Airport,Sebring,SEF,27.45639992,-81.3423996,-5
8507,Avon Park Executive Airport,Avon Park,AVO,27.59119987,-81.52780151,-5
8508,Winter Haven Regional Airport - Gilbert Field,Winter Haven,GIF,28.062901,-81.753304,-5
8509,Zephyrhills Municipal Airport,Zephyrhills,ZPH,28.22820091,-82.15589905,-5
8510,Ocala International Airport - Jim Taylor Field,Ocala,OCF,29.17259979,-82.22419739,-5
8515,Aiken Regional Airport,Aiken,AIK,33.649399,-81.684998,-5
8516,Woodward Field,Camden,CDN,34.28359985,-80.56490326,-5
8517,Lumberton Regional Airport,Lumberton,LBT,34.60990143,-79.05940247,-5
8519,Moore County Airport,Pinehurst-Southern Pines,SOP,35.23740005,-79.3911972,-5
8526,Statesville Regional Airport,Statesville,SVH,35.76530075,-80.9539032,-5
8532,William T. Piper Memorial Airport,Lock Haven,LHV,41.13560104,-77.42230225,-5
8544,Burke Lakefront Airport,Cleveland,BKL,41.51750183,-81.6832962,-5
8545,Chautauqua County-Dunkirk Airport,Dunkirk,DKK,42.49330139,-79.27200317,-5
8548,South Jersey Regional Airport,Mount Holly,LLY,39.94290161,-74.84570313,-5
8550,Linden Airport,Linden,LDJ,40.61740112,-74.24459839,-5
8553,Tri State Steuben County Airport,Angola,ANQ,41.639702,-85.083504,-5
8565,Clearwater Air Park,Clearwater,CLW,27.97669983,-82.75869751,-5
8593,Chicago Meigs Airport,Chicago,CGX,41.85879898,-87.60790253,-6
8604,Grand Strand Airport,North Myrtle Beach,CRE,33.81169891,-78.72389984,-5
8625,Wilkes Barre Wyoming Valley Airport,Wilkes-Barre,WBW,41.29719925,-75.85119629,-5
8626,Willoughby Lost Nation Municipal Airport,Willoughby,LNN,41.68399811,-81.38970184,-5
8631,Capital City Airport,Frankfort,FFT,38.18249893,-84.90470123,-5
8632,Auburn Lewiston Municipal Airport,Lewiston,LEW,44.04850006,-70.28350067,-5
8641,Marco Island Executive Airport,Marco Island Airport,MRK,25.995001,-81.672501,-5
8644,Drummond Island Airport,Drummond Island,DRE,46.00930023,-83.74389648,-5
8646,Gladwin Zettel Memorial Airport,Gladwin,GDW,43.97060013,-84.47499847,-5
8653,Marshfield Municipal Airport,Marshfield,MFI,44.63690186,-90.18930054,-6
8654,Alexander Field South Wood County Airport,Wisconsin Rapids,ISW,44.36029816,-89.83899689,-6
8655,Clinton Municipal Airport,Clinton,CWI,41.83110046,-90.32910156,-6
8658,Beverly Municipal Airport,Beverly,BVY,42.58420181,-70.91649628,-5
8664,Poplar Bluff Municipal Airport,Poplar Bluff,POF,36.77389908,-90.32489777,-6
8667,Keokuk Municipal Airport,Keokuk,EOK,40.4598999,-91.42849731,-6
8681,St Paul Downtown Holman Field,St. Paul,STP,44.93450165,-93.05999756,-6
8706,Butler Co Regional Airport - Hogan Field,Hamilton,HAO,39.36380005,-84.52200317,-5
8742,Fond du Lac County Airport,Fond du Lac,FLD,43.77119827,-88.48840332,-6
8744,Stevens Point Municipal Airport,Stevens Point,STE,44.54520035,-89.53029633,-6
8759,Galion Municipal Airport,Galion,GQQ,40.7533989,-82.72380066,-5
8763,Clarksville–Montgomery County Regional Airport,Clarksville,CKV,36.62189865,-87.41500092,-6
8771,Lompoc Airport,Lompoc,LPC,34.66559982,-120.4680023,-8
8772,Chester County G O Carlson Airport,Coatesville,CTH,39.97900009,-75.8655014,-5
8777,Lake Placid Airport,Lake Placid,LKP,44.26449966,-73.9618988,-5
8784,Lima Allen County Airport,Lima,AOH,40.706902,-84.026703,-5
8789,Malcolm McKinnon Airport,Brunswick,SSI,31.15180016,-81.39129639,-5
8790,Beaver County Airport,Beaver Falls,BFP,40.77249908,-80.3914032,-5
8792,Georgetown County Airport,Georgetown,GGE,33.31169891,-79.31960297,-5
8793,Hardwick Field,Cleveland,HDI,35.2201004,-84.83239746,-5
8796,Renton Municipal Airport,Renton,RNT,47.49309921,-122.2160034,-8
8798,Brackett Field,La Verne,POC,34.09159851,-117.7819977,-8
8801,Cross City Airport,Cross City,CTY,29.63549995,-83.10479736,-5
8802,Oconee County Regional Airport,Clemson,CEU,34.6719017,-82.8864975,-5
8804,Beech Factory Airport,Wichita,BEC,37.69449997,-97.21499634,-6
8815,Sidney Municipal-Lloyd W Carr Field,Sidney,SNY,41.10129929,-102.9850006,-7
8824,Kalaeloa Airport,Kapolei,JRF,21.3074,-158.070009,-10
8833,Iosco County Airport,East Tawas,ECA,44.312801,-83.422302,-5
8854,Boulder Municipal Airport,Boulder,WBU,40.03939819,-105.2259979,-7
8864,Palo Alto Airport of Santa Clara County,Palo Alto,PAO,37.46110153,-122.1149979,-8
8869,Falcon Field,Mesa,MSC,33.46080017,-111.7279968,-7
8877,Oakland County International Airport,Pontiac,PTK,42.66550064,-83.42009735,-5
8888,Dillant Hopkins Airport,Keene,EEN,42.89839935,-72.27079773,-5
8925,Iowa City Municipal Airport,Iowa City,IOW,41.6391983,-91.54650116,-6
8935,Lee Airport,Annapolis,ANP,38.942902,-76.568398,-5
8950,Pecos Municipal Airport,Pecos,PEQ,31.38240051,-103.5110016,-6
8951,Hattiesburg Bobby L Chain Municipal Airport,Hattiesburg,HBG,31.26479912,-89.25279999,-6
8958,Chan Gurney Municipal Airport,Yankton,YKN,42.91669846,-97.3859024,-6
8982,Hayward Executive Airport,Hayward,HWD,37.65919876,-122.1220016,-8
8989,Ann Arbor Municipal Airport,Ann Arbor,ARB,42.22299957,-83.74559784,-5
9071,Alameda Naval Air Station,Alameda,NGZ,37.78889847,-122.3199997,-8
9102,Immokalee Regional Airport,Immokalee ,IMM,26.43320084,-81.40100098,-5
9120,Dinwiddie County Airport,Petersburg,PTB,37.18379974,-77.50740051,-5
9126,Sheboygan County Memorial Airport,Sheboygan,SBM,43.76959991,-87.85140228,-6
9138,Pinal Airpark,Marana,MZJ,32.51060104,-111.3280029,-7
9140,Safford Regional Airport,Safford,SAD,32.85480118,-109.6350021,-7
9164,Sikeston Memorial Municipal Airport,Sikeston,SIK,36.89889908,-89.5617981,-6
9178,Floyd Bennett Memorial Airport,Queensbury,GFL,43.34120178,-73.61029816,-5
9183,Martin State Airport,Baltimore,MTN,39.325699,-76.413803,-5
9186,Eastern Slopes Regional Airport,Fryeburg,FRY,43.99110031,-70.94789886,-5
9188,Lakefront Airport,New Orleans,NEW,30.04240036,-90.02829742,-6
9189,Coeur D'Alene - Pappy Boyington Field,Coeur d'Alene,COE,47.77429962,-116.8199997,-8
9190,Beaumont Municipal Airport,Beaumont,BMT,30.07069969,-94.21579742,-6
9191,Vermilion Regional Airport,Danville,DNV,40.19919968,-87.59590149,-6
9199,Space Coast Regional Airport,Titusville,TIX,28.51479912,-80.79920197,-5
9225,Andrau Airpark,Houston,AAP,29.72249985,-95.58830261,-6
9226,Flying Cloud Airport,Eden Prairie,FCM,44.82720184,-93.45709991,-6
9228,Johnson County Executive Airport,Olathe,OJC,38.84759903,-94.73760223,-6
9251,Manassas Regional Airport/Harry P. Davis Field,Manassas,MNZ,38.72140121,-77.51540375,-5
9252,Texas Gulf Coast Regional Airport,Angleton,LJN,29.10860062,-95.46209717,-6
9387,Port Alsworth Airport,Port alsworth,PTA,60.201681,-154.325863,-9
9399,Newton City-County Airport,Newton,EWK,38.05820084,-97.27449799,-6
9403,Taszár Air Base,Columbus,TZR,46.39310074,17.91749954,1
9406,Fort Bridger Airport,Fort Bridger,FBR,41.39189911,-110.4069977,-7
9408,Chehalis Centralia Airport,Chehalis,CLS,46.67699814,-122.9830017,-8
9411,Evanston-Uinta County Airport-Burns Field,Evanston,EVW,41.27479935,-111.0350037,-7
9415,Weedon Field,Eufala,EUF,31.95129967,-85.12889862,-6
9417,Dare County Regional Airport,Manteo,MEO,35.91899872,-75.69550323,-5
9418,Auburn University Regional Airport,Auburn,AUO,32.615101,-85.433998,-6
9450,W H 'Bud' Barron Airport,Dublin,DBN,32.56439972,-82.98529816,-5
9488,Corvallis Municipal Airport,Corvallis,CVO,44.49720001,-123.2900009,-8
9543,Ogden Hinckley Airport,Ogden,OGD,41.19589996,-112.012001,-7
9546,Colorado Plains Regional Airport,Akron,AKO,40.17559814,-103.2220001,-7
9547,Sanderson Field,Shelton,SHN,47.23360062,-123.1480026,-8
9739,Napakiak Airport,Napakiak,WNA,60.69029999,-161.9790039,-9
9744,Napaskiak Airport,Napaskiak,PKA,60.70289993,-161.7779999,-9
9763,Doylestown Airport,Doylestown,DYL,40.33300018,-75.12229919,-5
9772,Warren Field,Washington,OCW,35.57049942,-77.04979706,-5
9776,Stillwater Regional Airport,Stillwater,SWO,36.16120148,-97.08570099,-6
9777,Okmulgee Regional Airport,Okmulgee,OKM,35.66809845,-95.94869995,-6
9778,Cushing Municipal Airport,Cushing,CUH,35.94990158,-96.77310181,-6
9779,Clinton Sherman Airport,Clinton,CSM,35.33980179,-99.20050049,-6
9780,Strother Field,Winfield,WLD,37.16859818,-97.03759766,-6
9781,Wiley Post Airport,Oklahoma City,PWA,35.53419876,-97.64710236,-6
9782,Shreveport Downtown Airport,Shreveport,DTN,32.54019928,-93.74500275,-6
9783,Stephenville Clark Regional Airport,Stephenville,SEP,32.21530151,-98.17769623,-6
9787,Ada Regional Airport,Ada,ADT,34.804298,-96.671303,-6
9794,Iraan Municipal Airport,Iraan,IRB,30.90570068,-101.8919983,-6
9797,Wilkes County Airport,North Wilkesboro,IKB,36.22280121,-81.09829712,-5
9799,Danville Regional Airport,Danville,DAN,36.57289886,-79.33609772,-5
9806,Cheraw Municipal Airport/Lynch Bellinger Field,Cheraw,HCW,34.71289825,-79.95700073,-5
10017,San Gabriel Valley Airport,El Monte,EMT,34.086102,-118.035004,-8
10102,Stinson Municipal Airport,Stinson,SSF,29.33699989,-98.47109985,-5
10104,Jasper County Airport-Bell Field,Jasper,JAS,30.88570023,-94.03489685,-5
10106,Marfa Municipal Airport,Marfa,MRF,30.371099,-104.017997,-5
10107,Alpine Casparis Municipal Airport,Alpine,ALE,30.38419914,-103.6839981,-5
10117,Cable Airport,Upland,CCB,34.11159897,-117.6880035,-8
10122,Elkhart Municipal Airport,Elkhart,EKI,41.7193985,-86.00319672,-5
10128,Jim Hamilton L.B. Owens Airport,Columbia,CUB,33.97050095,-80.99520111,-4
10131,Donaldson Field Airport,Greenville,GDC,34.758301,-82.376404,-4
10133,Hartsville Regional Airport,Hartsville,HVS,34.40309906,-80.11920166,-5
10145,Leesburg International Airport,Leesburg,LEE,28.82309914,-81.80870056,-5
10162,Chino Airport,Chino,CNO,33.97470093,-117.637001,-8
10185,Paso Robles Municipal Airport,Paso Robles,PRB,35.67290115,-120.6269989,-8
10360,Half Moon Bay Airport,Half Moon Bay,HAF,37.51340103,-122.5009995,-8
10371,General WM J Fox Airfield,Lancaster,WJF,34.74110031,-118.2190018,-8
11004,Talladega Municipal Airport,Talladega,ASN,33.56990051,-86.05090332,-5
11005,Greenville Downtown Airport,Greenville,GMU,34.84790039,-82.34999847,-4
11010,Troy Municipal Airport at N Kenneth Campbell Field,Troy,TOI,31.860399,-86.012101,-5
11012,Enterprise Municipal Airport,Enterprise,ETS,31.29969978,-85.89990234,-5
11022,Thomas C Russell Field,Alexander City,ALX,32.91469955,-85.96299744,-5
11070,Brewster Field,Holdredge,HDE,40.452099,-99.336502,-5
11071,Pratt Regional Airport,Pratt,PTT,37.70159912,-98.74690247,-5
11074,Jim Kelly Field,Lexington,LXN,40.79100037,-99.77729797,-5
11076,Council Bluffs Municipal Airport,Council Bluffs,CBF,41.25920105,-95.76059723,-5
11077,Kokomo Municipal Airport,Kokomo,OKK,40.52819824,-86.05899811,-4
11082,Galesburg Municipal Airport,Galesburg,GBG,40.93799973,-90.43109894,-5
11084,Guymon Municipal Airport,Guymon,GUY,36.68510056,-101.5080032,-5
11090,Independence Municipal Airport,Independence,IDP,37.15840149,-95.77839661,-5
11094,Bay City Municipal Airport,Bay City,BBC,28.97330093,-95.8635025,-5
11095,Cox Field,Paris,PRX,33.63660049,-95.45079803,-5
11096,Coffeyville Municipal Airport,Coffeyville,CFV,37.09400177,-95.57189941,-5
11098,Greeley–Weld County Airport,Greeley,GXY,40.43740082,-104.6330032,-7
11100,Oryol Yuzhny Airport,Oakley,OEL,52.93470001,36.00220108,-5
11101,Fremont Municipal Airport,Fremont,FET,41.44910049,-96.52020264,-5
11102,La Grande/Union County Airport,La Grande,LGD,45.29019928,-118.0070038,-7
11110,Pocono Mountains Municipal Airport,Mount Pocono,MPO,41.137503,-75.378897,-5
11111,Quakertown Airport,Quakertown,UKT,40.43519974,-75.38189697,-5
11131,Banning Municipal Airport,Banning,BNG,33.92309952,-116.8509979,-8
11134,Karl Stefan Memorial Airport,Norfolk  Nebraska,OFK,41.98550034,-97.43509674,-6
11153,Peter O Knight Airport,Tampa,TPF,27.91559982,-82.44930267,-5
11243,Montauk Airport,Montauk,MTP,41.0765,-71.920797,-4
11255,Porter County Municipal Airport,Valparaiso IN,VPZ,41.45399857,-87.00710297,-5
11299,Mason County Airport,Ludington,LDM,43.96250153,-86.40789795,-5
11312,Reid-Hillview Airport of Santa Clara County,San Jose,RHV,37.332901,-121.8190002,8
11638,Watsonville Municipal Airport,Watsonville,WVI,36.93569946,-121.7900009,-8
11648,Hollister Municipal Airport,Hollister,HLI,36.8932991,-121.4100037,-8
12528,Skagit Regional Airport,Skagit,MVW,48.47090149,-122.4209976,-8
12672,Marion County Brown Field,Jasper,APT,35.060699,-85.585297,-5
12675,Pryor Field Regional Airport,Decatur,DCU,34.65269852,-86.94539642,-6
12676,Glasgow Municipal Airport,Glasgow,GLW,37.03179932,-85.9536972,-6
12873,Jasper County Airport,Rensselaer,RNZ,40.94789886,-87.18260193,-5
12950,Statesboro Bulloch County Airport,Statesboro,TBR,32.48270035,-81.73690033,-5
13074,West Bend Municipal Airport,WEST BEND,ETB,43.42219925,-88.12789917,-5
13075,Gaylord Regional Airport,GAYLORD,GLR,45.01350021,-84.70359802,-4
13077,Anderson Municipal Darlington Field,ANDERSON,AID,40.10860062,-85.61299896,-4
13080,Prairie Du Chien Municipal Airport,Prairie du Chien,PCD,43.01929855,-91.123703,-6
13139,Taos Regional Airport,Taos,TSM,36.45819855,-105.6719971,-6
13142,Raton Municipal-Crews Field,Raton,RTN,36.74150085,-104.5019989,-6
13154,Perry Lefors Field,Pampa,PPA,35.61299896,-100.9960022,-5
13156,Marion County Regional Airport,Flippin,FLP,36.29090118,-92.59030151,-5
13158,Hutchinson County Airport,Borger,BGD,35.70090103,-101.3939972,-5
13189,Santa Ynez Airport,Santa Ynez,SQA,34.60680008,-120.0759964,-8
13233,Spartanburg Downtown Memorial Airport,Spartangurg,SPA,34.91569901,-81.95649719,-5
13265,Tri-City Airport,Parsons,PPF,37.32989883,-95.5062027,-6
13267,Waycross Ware County Airport,Waycross,AYS,31.24909973,-82.39550018,-5
13271,Greater Portsmouth Regional Airport,Portsmouth,PMH,38.84049988,-82.84729767,-5
13336,Clarks Point Airport,Clarks Point,CLP,58.83369827,-158.529007,-9
13439,Red Dog Airport,Red Dog,RDB,68.03209686,-162.8990021,-9
13707,Seldovia Airport,Seldovia,SOV,59.44240189,-151.7039948,-9
13757,Vidalia Regional Airport,Vidalia,VDI,32.19269943,-82.37120056,-4
13803,Mitchell Municipal Airport,Mitchell,MHE,43.77479935,-98.03859711,-6